시군명,지식산업센터명칭,위도,경도,소재지지번주소,소재지도로명주소,용도지역,부지면적(㎡),건축면적(㎡),층수(지하/지상),공장시설면적(㎡),기타산업시설면적(㎡),지원시설면적(㎡),공동시설면적(㎡),유치가능업체수,입주업체수,공장동수,분양형태,공사진행상황,허가일자,착공일자,준공일자,사용승인일,사업자등록번호,데이터기준일자,전화번호,비고
수원시,광교더퍼스트,37.2662537413,127.0602892480,경기도 수원시 영통구 원천동 476번지,경기도 수원시 영통구 매영로159번길 19,일반공업,5483,3250.55,B1/15,37491.479,,1323.257,,294,9,1,분양,준공,2021-04-21,2021-07-08,2023-09-22,2023-07-21,,2024-02-01,,
수원시,광교센트럴비즈타워,37.2955438419,127.0376436747,경기도 수원시 영통구 이의동 1283번지,경기도 수원시 영통구 창룡대로 260,준주거,4154,3703.76,B3/11,22474,,22735,,252,90,1,분양,준공,2016-04-04,2016-05-12,2018-05-23,2018-03-20,,2024-02-01,,
수원시,광교플렉스데시앙,37.2954406512,127.0389192494,경기도 수원시 영통구 이의동 1285-1,경기도 수원시 영통구 창룡대로256번길 50,준주거,6292.4,3190.07,B5/15,42836.32,,1819.21,,298,45,1,분양,준공,2021-01-14,2021-04-20,2023-08-01,2023-06-28,,2024-02-01,,
수원시,덴티움,37.2952851607,127.0406577280,경기도 수원시 영통구 이의동 1287번지,경기도 수원시 영통구 창룡대로256번길 76,준주거,9800,5780.77,B4/15,60509.65,,2643.46,,91,4,1,자가,준공,2016-08-31,2016-12-12,2019-04-02,2019-02-20,,2024-02-01,,
수원시,디지털엠파이어,37.2449526438,127.0599958565,경기도 수원시 영통구 영통동 980-3번지,경기도 수원시 영통구 덕영대로1556번길 16,준주거,19664,11244.12,B2/14,126379,,32268,,369,186,1,분양,준공,2003-05-17,2004-04-01,2006-08-07,2006-08-07,,2024-02-01,,
수원시,디지털엠파이어2,37.2473002160,127.0514353723,경기도 수원시 영통구 신동 486번지,경기도 수원시 영통구 신원로 88,일반공업,29339,12352.13,B2/15,132943,,9493,,584,319,4,분양,준공,2006-03-14,2006-04-10,2008-06-30,2008-06-30,,2024-02-01,,
수원시,삼성테크노파크,37.2665389110,127.0594078764,경기도 수원시 영통구 원천동 471번지,경기도 수원시 영통구 중부대로448번길 97,일반공업,4197,2339.17,B2/7,14660,,5467,,66,26,1,분양,준공,2001-04-27,2002-07-10,2003-09-29,2003-09-29,,2024-02-01,,
수원시,성신테크노,37.2549895453,127.0611666444,경기도 수원시 영통구 매탄동 509-7번지,경기도 수원시 영통구 영통로323번길 38,준공업,3100,1671.47,B1/6,9344,,,,30,24,1,분양,준공,2002-11-12,2003-01-21,2004-01-20,2004-01-20,,2024-02-01,,
수원시,수원델타원,37.2423666034,126.9863641666,경기도 수원시 권선구 고색동 1098-2,경기도 수원시 권선구 산업로 198,일반공업,9985.1,7786.72,B2/8,59653.38,,4929.78,,260,237,1,분양,준공,2020-04-22,2020-08-04,2022-07-06,2022-07-01,,2024-02-01,,
수원시,수원벤처밸리2,37.2384099802,126.9864812076,경기도 수원시 권선구 고색동 1152번지,경기도 수원시 권선구 산업로156번길 142-10,일반공업,13278,9870.31,B2/8,79081,,5700,,355,355,1,분양,준공,2015-08-24,2015-09-15,2017-06-14,2017-06-08,,2024-02-01,,
수원시,수원벤처프라자1,37.2591190737,127.0590451161,경기도 수원시 영통구 매탄동 413-3번지,경기도 수원시 영통구 삼성로168번길 48,일반공업,1285,769.9,B1/5,4338,,316,,6,5,1,임대,준공,2003-03-17,2003-07-03,2004-08-16,2004-08-16,,2024-02-01,,
수원시,수원벤처프라자2,37.2587773063,127.0592500984,경기도 수원시 영통구 매탄동 409-16번지,경기도 수원시 영통구 신원로283번길 47,일반공업,512,299.55,B1/5,1636,,,,5,3,1,임대,준공,2003-09-29,2003-10-09,2004-07-20,2004-07-20,,2024-02-01,,
수원시,수원첨단벤처밸리,37.2429220903,126.9773518137,경기도 수원시 권선구 고색동 958번지,경기도 수원시 권선구 오목천로152번길 40,일반공업,7477,4958.35,B1/10,38313,,2303,,162,116,1,분양,준공,2006-09-20,2006-10-16,2008-04-02,2008-04-02,,2024-02-01,,
수원시,수원팩토리월드,37.2655925945,127.0643194229,경기도 수원시 영통구 원천동 332-2번지,경기도 수원시 영통구 삼성로 274,준공업,10053,4968.8,B3/10,49750,,13938,,172,153,1,분양,준공,1991-10-24,1991-11-16,1993-11-10,1993-11-10,,2024-02-01,,
수원시,수원휴먼스카이밸리,37.2427199544,126.9764850507,경기도 수원시 권선구 고색동 959번지,경기도 수원시 권선구 오목천로132번길 33,일반공업,7468.6,5182.89,B1/10,39071,,2573,,173,128,1,분양,준공,2007-01-04,2008-05-21,2010-04-29,2010-04-29,,2024-02-01,,
수원시,썬테크노빌,37.2471943605,127.0544352804,경기도 수원시 영통구 망포동 5-27번지,경기도 수원시 영통구 덕영대로1471번길 77,일반공업,1169,763.21,B1/5,4439,,,,10,10,1,분양,준공,2001-04-10,2001-06-23,2002-06-14,2002-06-14,,2024-02-01,,
수원시,에이스광교타워1,37.3001940704,127.0467209089,경기도 수원시 영통구 이의동 1248-3번지,경기도 수원시 영통구 대학4로 17,준주거,7318.8,3553.06,B3/10,42111,,4576,,225,207,1,분양,준공,2015-05-11,2015-05-29,2016-12-27,2016-11-03,,2024-02-01,,
수원시,에이스광교타워2,37.2957487517,127.0416590721,경기도 수원시 영통구 이의동 1286-1번지,경기도 수원시 영통구 창룡대로256번길 91,준주거,4703,2650.13,B4/15,31610,,1893.81,,164,155,1,분양,준공,2016-02-03,2016-04-07,2018-05-15,2018-03-20,,2024-02-01,,
수원시,에이스광교타워3,37.2961429931,127.0410474095,경기도 수원시 영통구 이의동 1286번지,경기도 수원시 영통구 창룡대로256번길 77,준주거,4897,2474.03,B4/15,31254.37,,3835,,292,198,1,분양,준공,2016-06-24,2016-11-16,2018-11-12,2018-10-30,,2024-02-01,,
수원시,에이스스마트윙영통,37.2651314554,127.0614912591,경기도 수원시 영통구 원천동 246외 2필지,경기도 수원시 영통구 삼성로 253,일반공업,4555,2726.01,B2/14,26303.51,,3519.35,,340,104,1,분양,준공,2004-11-30,2004-12-28,2021-12-08,2021-10-28,,2024-02-01,,
수원시,에이스하이엔드타워,37.2486642386,127.0569974878,경기도 수원시 영통구 신동 338번지,경기도 수원시 영통구 영통로 237,일반공업,4820,2541.91,B4/10,15019,,16326,,224,171,1,분양,준공,2017-05-25,2017-09-10,2019-12-27,2019-10-31,,2024-02-01,,
수원시,엠제이아이티밸리,37.2770519022,127.0319363552,경기도 수원시 팔달구 인계동 940-18번지,경기도 수원시 팔달구 장다리로 328,일반상업,800,584.51,B3/14,3254,,5099,,104,61,1,분양,준공,2018-01-10,2018-04-27,2020-01-31,2019-12-27,,2024-02-01,,
수원시,영통이노플렉스1,37.2623570114,127.0619922887,경기도 수원시 영통구 원천동 552번지,경기도 수원시 영통구 신원로 306,일반공업,8952,5273.19,B5/11,51806,,7579,,89,55,2,분양,준공,2007-09-14,2007-10-24,2009-11-19,2009-11-19,,2024-02-01,,
수원시,영통이노플렉스2,37.2622271848,127.0610118775,경기도 수원시 영통구 원천동 554번지,경기도 수원시 영통구 신원로 304,일반공업,4154,2309.89,B3/9,22684,,1805,,233,108,1,분양,준공,2008-01-21,2008-02-01,2009-11-19,2009-11-19,,2024-02-01,,
수원시,우만전자공단,37.2920904443,127.0327796250,경기도 수원시 팔달구 우만동 300-5번지,경기도 수원시 팔달구 창룡대로210번길 12,일반주거,2205,905.54,B2/8,7079,,2727,,15,15,1,분양,준공,1992-12-31,1993-01-26,1994-07-21,1994-07-21,,2024-02-01,,
수원시,우성테크노파크수원정자,37.3106880848,126.9833831981,경기도 수원시 장안구 이목동 338-6번지,경기도 수원시 장안구 이목로 17,일반공업,8133,4871.07,B3/13,47967.02,,7145.61,,646,22,1,분양,준공,2021-05-21,2021-06-04,2024-01-16,2023-12-29,,2024-02-01,,
수원시,테크트리영통,37.2488993118,127.0476485192,경기도 수원시 영통구 신동 478-6번지,경기도 수원시 영통구 신원로 55,일반공업,13065.4,6856.72,B3/15,30643.2,,12542.34,,352,186,2,분양,준공,2018-12-26,2019-07-01,2021-12-08,2021-11-24,,2024-02-01,,
수원시,프리마비즈센터,37.2567006744,126.9644122789,경기도 수원시 권선구 호매실동 1405-2번지,경기도 수원시 권선구 호매실로90번길 24,근린상업,8482,5893.85,B2/6,40794.85,,4833.05,,308,171,1,분양,준공,2019-11-07,2020-01-10,2021-08-13,2021-06-11,,2024-02-01,,
수원시,현대테라타워영통,37.2578833846,127.0612626283,경기도 수원시 영통구 원천동 627번지,경기도 수원시 영통구 신원로250번길 13,일반공업,15702,9418.83,B2/15,72236.56,,24709.8,,648,354,2,분양,준공,2019-12-16,2019-12-18,2022-07-19,2022-05-31,,2024-02-01,,
성남시,LH기업성장센터,37.4115781293,127.0939517004,경기도 성남시 수정구 시흥동 294-2 판교제2테크노밸리기업성장센터,경기도 성남시 수정구 창업로 54 (시흥동),준공업,,53053,,,,,,,116,,,준공,2018-04-02,2016-10-21,,2018-04-13,,2023-07-31,031-747-0969,
성남시,LH제2기업성장센터,37.4115781293,127.0939517004,경기도 성남시 수정구 시흥동 산51-2,경기도 성남시 수정구 창업로 54 (시흥동),준공업,,25511,,,,,,,0,,,착공전,2020-10-22,,,,,2023-07-31,055-922-5114,
성남시,SK V1,37.4395067614,127.1738579910,경기도 성남시 중원구 상대원동 5460 성남 SK V1 tower,경기도 성남시 중원구 갈마치로288번길 14 (상대원동),일반공업,,140396,,,,,,,216,,,준공,2016-03-22,2016-09-01,,2019-11-08,,2023-07-31,031-8035-3000,
성남시,SK엔테크노파크,37.4399480135,127.1769873928,경기도 성남시 중원구 상대원동 190-1 SKn테크노파크,경기도 성남시 중원구 사기막골로 124 (상대원동),일반공업,,196562,,,,,,,422,,,준공,2004-08-01,2004-12-07,,2006-11-24,,2023-07-31,031-776-0300,
성남시,SK지식산업센터,37.4356323712,127.1744060797,경기도 성남시 중원구 상대원동 223-28 SK지식산업센터,경기도 성남시 중원구 갈마치로 234 (상대원동),일반공업,,45642,,,,,,,81,,,준공,1997-04-01,1997-07-31,,1998-11-28,,2023-07-31,031-736-0888,
성남시,SW드림타운,,,경기도 성남시 수정구 시흥동 산53-5,,준공업,,18621,,,,,,,0,,,건설중,2018-08-13,2021-03-10,,,,2023-07-31,02-2141-7862,
성남시,Weave Tower,37.4356388593,127.1734904483,경기도 성남시 중원구 상대원동 252-1,경기도 성남시 중원구 갈마치로 241 (상대원동),일반공업,,83481,,,,,,,0,,,건설중,2020-11-24,2021-06-01,,,,2023-07-31,02-2008-9915,
성남시,경기기업성장센터,37.4121207278,127.0944685799,경기도 성남시 수정구 시흥동 293 판교 제2테크노밸리 경기 기업성장센터,경기도 성남시 수정구 창업로 42 (시흥동),준공업,,70598,,,,,,,114,,,준공,2018-04-02,2017-02-14,,2019-01-16,,2023-07-31,031-757-9011,
성남시,글로벌Biz센터,37.4117924869,127.0960071676,경기도 성남시 수정구 시흥동 340,경기도 성남시 수정구 창업로 43 (시흥동),준주거,,95588,,,,,,,46,,,준공,2020-04-20,2020-08-19,,2022-02-27,,2023-07-31,070-4035-3443,
성남시,금강펜테리움IT타워,37.4333851732,127.1733985075,경기도 성남시 중원구 상대원동 333-7 금강펜테리움IT타워,경기도 성남시 중원구 갈마치로 215 (상대원동),일반공업,,99283,,,,,,,112,,,준공,2006-03-02,2006-05-15,,2008-02-28,,2023-07-31,031-730-0110,
성남시,금강하이테크밸리,37.4444308628,127.1780986288,경기도 성남시 중원구 상대원동 133-1 금강하이테크밸리,경기도 성남시 중원구 사기막골로 177 (상대원동),일반공업,,40208,,,,,,,72,,,준공,2001-01-02,2001-12-28,,2003-07-24,,2023-07-31,031-777-5115,
성남시,금강하이테크밸리 2차,37.4428332343,127.1772915255,경기도 성남시 중원구 상대원동 138-1 금강하이테크밸리2차,경기도 성남시 중원구 사기막골로 159 (상대원동),일반공업,,20252,,,,,,,48,,,준공,2002-09-25,2004-02-11,,2005-05-18,,2023-07-31,031-737-4001,
성남시,노벨테크노타워,37.4403475193,127.1747586983,경기도 성남시 중원구 상대원동 138-12 노벨테크노타워,경기도 성남시 중원구 갈마치로288번길 24 (상대원동),일반공업,,3361,,,,,,,10,,,준공,2001-03-02,2001-06-08,,2002-05-23,,2023-07-31,031-749-8119,
성남시,델리스지식산업센터,37.4431775091,127.1779344251,경기도 성남시 중원구 상대원동 135-5,경기도 성남시 중원구 사기막골로 164 (상대원동),일반공업,,9697,,,,,,,6,,,준공,2014-12-24,2015-02-13,,2008-03-11,,2023-07-31,031-296-1111,
성남시,드림테크노,37.4317033000,127.1682515779,경기도 성남시 중원구 상대원동 513-22 드림테크노,경기도 성남시 중원구 둔촌대로 464 (상대원동),일반공업,,16461,,,,,,,28,,,준공,2007-03-16,2007-04-06,,2008-06-19,,2023-07-31,031-737-6600,
성남시,반도아이비밸리,37.4272710917,127.0939686831,경기도 성남시 수정구 고등동 603,경기도 성남시 수정구 청계산로 686 (고등동),근린상업,,41544,,,,,,,13,,,준공,2018-03-23,2018-07-12,,2020-02-14,,2023-07-31,031-759-4630,
성남시,반포테크노피아,37.4303775845,127.1744853552,경기도 성남시 중원구 상대원동 513-3 반포테크노피아,경기도 성남시 중원구 갈마치로 186 (상대원동),일반공업,,20383,,,,,,,32,,,준공,2008-01-30,2008-07-10,,2010-01-18,,2023-07-31,031-733-5604,
성남시,벽산테크노피아,37.4311911785,127.1786413642,경기도 성남시 중원구 상대원동 434-6 벽산테크노피아아파트형공장,경기도 성남시 중원구 둔촌대로 560 (상대원동),일반공업,,29866,,,,,,,56,,,준공,2001-02-01,2001-05-19,,2002-08-06,,2023-07-31,031-737-8117,
성남시,분당남서울첨단,37.3788552413,127.1010408434,경기도 성남시 분당구 백현동 404-6,경기도 성남시 분당구 대왕판교로395번길 8 (백현동),자연녹지,,10496,,,,,,,0,,,준공,1999-05-02,2000-06-02,,2001-11-28,,2023-07-31,031-788-9484,
성남시,분당테크노파크,37.4055047448,127.1510002357,"경기도 성남시 분당구 판교로 697, 700, 723, 744","경기도 성남시 분당구 판교로 697, 700, 723, 744",근린상업,,188839,,,,,,,135,,,준공,1991-03-02,1992-04-01,,1994-09-26,,2023-07-31,031-706-9200,
성남시,선일테크노피아,37.4320740531,127.1784680417,경기도 성남시 중원구 상대원동 440 선일테크노피아,경기도 성남시 중원구 둔촌대로 555 (상대원동),일반공업,,43406,,,,,,,89,,,준공,2001-10-01,2002-01-21,,2003-06-30,,2023-07-31,031-777-3100,
성남시,선텍시티,37.4313456374,127.1692817382,경기도 성남시 중원구 상대원동 513-15 선텍시티1,경기도 성남시 중원구 둔촌대로 474 (상대원동),일반공업,,59245,,,,,,,76,,,준공,2001-07-01,2002-04-01,,2003-05-27,,2023-07-31,031-777-1115,
성남시,선텍시티2차,37.4348662782,127.1711765608,경기도 성남시 중원구 상대원동 307-2 선택시티 2,경기도 성남시 중원구 사기막골로 52 (상대원동),일반공업,,34613,,,,,,,38,,,준공,2003-09-08,2004-03-19,,2005-06-14,,2023-07-31,031-737-4999,
성남시,성남 센터엠,37.4352107527,127.1751426454,경기도 성남시 중원구 상대원동 223-27,경기도 성남시 중원구 사기막골로62번길 33 (상대원동),일반공업,,70980,,,,,,,158,,,준공,2019-02-14,2019-07-11,,2021-11-10,,2023-07-31,031-620-5700,
성남시,성남글로벌융합센터,37.4090490732,127.0950614237,경기도 성남시 수정구 시흥동 356,경기도 성남시 수정구 달래내로 46 (시흥동),준공업,,36617,,,,,,,12,,,준공,2018-12-04,2019-11-26,,2022-03-21,,2023-07-31,031-781-9363,
성남시,성남센트럴비즈타워,37.4419977422,127.1717558102,경기도 성남시 중원구 상대원동 143-2 성남 센트럴비즈타워 1,경기도 성남시 중원구 갈마치로 314 (상대원동),일반공업,,63471,,,,,,,96,,,준공,2017-06-15,2018-10-01,,2019-09-06,,2023-07-31,031-639-6414,
성남시,성남센트럴비즈타워2차,37.4386602300,127.1741329655,경기도 성남시 중원구 상대원동 5469,경기도 성남시 중원구 사기막골로 99 (상대원동),일반공업,,94465,,,,,,,144,,,준공,2018-11-27,2020-02-13,,2022-08-31,,2023-07-31,031-723-0500,
성남시,성우지식산업센터,37.4305200267,127.1738404688,경기도 성남시 중원구 상대원동 510-9 주식회사 성우메디텍,경기도 성남시 중원구 갈마치로 176 (상대원동),일반공업,,1946,,,,,,,0,,,준공,2023-01-16,,,1997-10-01,,2023-07-31,031-798-5073,
성남시,스타우드,37.4329007156,127.1613964754,경기도 성남시 중원구 상대원동 5439-1 STARWOOD아파트형공장,경기도 성남시 중원구 둔촌대로 400 (상대원동),일반공업,,19392,,,,,,,18,,,준공,2004-08-04,2004-09-03,,2006-02-10,,2023-07-31,031-737-0881,
성남시,스타타워,37.4351412184,127.1760811505,경기도 성남시 중원구 상대원동 223-25 스타타워,경기도 성남시 중원구 사기막골로62번길 37 (상대원동),일반공업,,57015,,,,,,,69,,,준공,2008-06-12,2008-11-12,,2010-08-25,,2023-07-31,031-8018-5114,
성남시,시콕스타워,37.4312772840,127.1706271063,경기도 성남시 중원구 상대원동 513-14,경기도 성남시 중원구 둔촌대로 484 (상대원동),일반공업,,57802,,,,,,,115,,,준공,2001-10-02,2002-09-30,,2004-06-10,,2023-07-31,031-777-9116,
성남시,쌍용IT트윈타워1차,37.4320955113,127.1764220685,경기도 성남시 중원구 상대원동 442-17 쌍용IT트윈타워 A동,경기도 성남시 중원구 둔촌대로 537 (상대원동),일반공업,,29285,,,,,,,68,,,준공,2001-07-01,2001-08-20,,2003-05-27,,2023-07-31,031-607-6300,
성남시,쌍용IT트윈타워2차,37.4320577534,127.1758005547,경기도 성남시 중원구 상대원동 442-5 쌍용IT트윈타워 B동,경기도 성남시 중원구 둔촌대로 531 (상대원동),일반공업,,29356,,,,,,,47,,,준공,2001-03-01,2001-10-05,,2003-02-07,,2023-07-31,031-607-6300,
성남시,영원패션클러스터,37.4435180834,127.1772207547,"경기도 성남시 중원구 상대원동 133-2, 132-5",경기도 성남시 중원구 사기막골로 169 (상대원동),일반공업,,38542,,,,,,,0,,,건설중,2020-01-31,,,,,2023-07-31,02-390-6613,
성남시,우림라이온스밸리 1차,37.4339530685,127.1701632418,경기도 성남시 중원구 상대원동 311-3 성남우림라이온스밸리,경기도 성남시 중원구 둔촌대로457번길 27 (상대원동),일반공업,,65136,,,,,,,114,,,준공,2007-01-10,2007-01-10,,2008-10-17,,2023-07-31,031-737-2114,
성남시,우림라이온스밸리 2차,37.4367194280,127.1698572002,경기도 성남시 중원구 상대원동 146-8 성남 우림 라이온스밸리,경기도 성남시 중원구 사기막골로45번길 14 (상대원동),일반공업,,97706,,,,,,,245,,,준공,2007-12-10,2007-12-31,,2010-11-12,,2023-07-31,031-8018-2100,
성남시,우림라이온스밸리 3차,37.4310376752,127.1592346821,경기도 성남시 중원구 상대원동 5445 성남 우림라이온스밸리3차,경기도 성남시 중원구 둔촌대로388번길 24 (상대원동),일반공업,,37582,,,,,,,57,,,준공,2007-12-10,2007-12-31,,2009-10-01,,2023-07-31,031-720-5088,
성남시,우림라이온스밸리 5차,37.4406568155,127.1725190689,경기도 성남시 중원구 상대원동 144-3 성남우림라이온스밸리5차,경기도 성남시 중원구 갈마치로 302 (상대원동),일반공업,,99470,,,,,,,250,,,준공,2007-12-10,2007-12-31,,2010-06-29,,2023-07-31,031-750-0100,
성남시,이노트리,37.4423347766,127.1796111406,경기도 성남시 중원구 상대원동 66-1 아세아도,경기도 성남시 중원구 순환로 210 (상대원동),일반공업,,8120,,,,,,,3,,,준공,2002-03-02,2002-04-19,,2003-06-23,,2023-07-31,031-746-6191,
성남시,자생메디바이오센터,37.4332171119,127.1680753462,경기도 성남시 중원구 상대원동 567-1,경기도 성남시 중원구 사기막골로 18 (상대원동),일반공업,,22676,,,,,,,4,,,준공,2017-05-11,2017-07-07,,2021-06-30,,2023-07-31,02-750-1533,
성남시,중앙이노테크,37.4412931095,127.1777390189,경기도 성남시 중원구 상대원동 171,경기도 성남시 중원구 사기막골로 148 (상대원동),일반공업,,41379,,,,,,,63,,,준공,2011-05-26,2011-10-10,,2013-07-26,,2023-07-31,031-723-0911,
성남시,중앙인더스피아,37.4328729426,127.1674890930,경기도 성남시 중원구 상대원동 517-13 중앙인더스피아,경기도 성남시 중원구 둔촌대로 449 (상대원동),일반공업,,36541,,,,,,,48,,,준공,1997-09-01,1998-04-07,,2000-11-15,,2023-07-31,031-740-9400,
성남시,중앙인더스피아 3차,37.4412173177,127.1731157691,경기도 성남시 중원구 상대원동 144-1 중앙인더스피아3,경기도 성남시 중원구 사기막골로105번길 27 (상대원동),일반공업,,6501,,,,,,,29,,,준공,2007-04-02,2009-04-25,,2010-12-29,,2023-07-31,031-744-7275,
성남시,중앙인더스피아 5차,37.4416230615,127.1764375697,경기도 성남시 중원구 상대원동 138-6 중앙인더스피아5차,경기도 성남시 중원구 사기막골로 137 (상대원동),일반공업,,37800,,,,,,,34,,,준공,2004-09-18,2005-03-23,,2006-05-22,,2023-07-31,031-739-5114,
성남시,중앙인더스피아2차,37.4404884338,127.1735598142,경기도 성남시 중원구 상대원동 144-5 중앙인더스피아2아파트형공장,경기도 성남시 중원구 사기막골로105번길 25 (상대원동),일반공업,,37833,,,,,,,31,,,준공,2001-05-01,2001-06-16,,2002-10-17,,2023-07-31,031-737-6117,
성남시,중일아인스프라츠 2차,37.4392489154,127.1751477988,경기도 성남시 중원구 상대원동 138-7 아인스프라츠2차,경기도 성남시 중원구 사기막골로 111 (상대원동),일반공업,,14848,,,,,,,3,,,준공,2008-05-18,2008-08-22,,2010-10-18,,2023-07-31,02-3451-7000,
성남시,중일아인스프라츠 3차,37.4316578307,127.1745928428,경기도 성남시 중원구 상대원동 442-13 중일아인스프라츠,경기도 성남시 중원구 둔촌대로 519 (상대원동),일반공업,,19580,,,,,,,12,,,준공,2008-08-08,2008-10-07,,2010-03-12,,2023-07-31,031-750-9700,
성남시,크란츠테크노,37.4326600274,127.1591934176,경기도 성남시 중원구 상대원동 5442-1 크란츠 테크노,경기도 성남시 중원구 둔촌대로 388 (상대원동),일반공업,,74715,,,,,,,138,,,준공,2002-03-22,2002-06-28,,2004-01-09,,2023-07-31,031-733-7900,
성남시,판교IT센터,,,경기도 성남시 분당구 판교제2테크노밸리 E2-1,,준공업,,38359,,,,,,,8,,,준공,2018-08-14,2021-05-06,,2023-06-30,,2023-07-31,070-4610-0654,
성남시,판교이노베이션랩,37.4060589399,127.0853601440,경기도 성남시 수정구 금토동 713 판교이노베이션랩 지식산업센터,경기도 성남시 수정구 금토로80번길 11 (금토동),준주거,,57668,,,,,,,21,,,준공,2019-06-03,2019-10-15,,2022-01-14,,2023-07-31,031-705-8545,
성남시,포스테크노,37.4384185670,127.1780452538,경기도 성남시 중원구 상대원동 234-1 포스테크노,경기도 성남시 중원구 순환로 165 (상대원동),일반공업,,58911,,,,,,,104,,,준공,2001-03-01,2001-08-04,,2003-03-26,,2023-07-31,031-737-5001,
성남시,한라시그마밸리,37.4319270019,127.1774287775,경기도 성남시 중원구 상대원동 442-2 한라시그마밸리,경기도 성남시 중원구 둔촌대로 545 (상대원동),일반공업,,58877,,,,,,,102,,,준공,2008-09-18,2008-12-10,,2010-09-16,,2023-07-31,031-736-4147,
성남시,현대I밸리,37.4364694673,127.1772623324,경기도 성남시 중원구 상대원동 223-12 현대아이밸리,경기도 성남시 중원구 갈마치로244번길 31 (상대원동),일반공업,,51644,,,,,,,78,,,준공,1999-10-01,2000-02-01,,2001-03-24,,2023-07-31,031-737-9115,
성남시,현대지식산업센터,37.4289105869,127.0936772608,경기도 성남시 수정구 고등동 572 현대지식산업센터 성남고등,경기도 성남시 수정구 고등로 3 (고등동),준주거,,49915,,,,,,,11,,,준공,2018-10-12,2018-12-14,,2021-01-11,,2023-07-31,031-738-1100,
의정부시,뉴빛,37.7433898470,127.0830882663,경기도 의정부시 용현동 524-4,경기도 의정부시 산단로76번길 93,준공업,2940.1,1451.57,B1/3,4241.99,,1011.48,0,10,6,1,자가+임대,사용승인,2013-08-07,2013-11-15,2014-07-28,2014-07-28,,2023-07-25,031-850-1902,
의정부시,의정부 더리브 센텀스퀘어 1동,,,경기도 의정부시 민락동 927-1,,준주거,6086,3622.15,B2/10,18715.41,,3224.3,20423.38,238,0,1,분양,사용승인,2020-05-12,2020-11-25,2022-08-18,2022-08-18,,2023-07-25,031-853-9535,
의정부시,의정부 더리브 센텀스퀘어 2동,,,경기도 의정부시 민락동 927-3,,준주거,6086,3622.15,B2/10,18415.13,,3425.63,20456.87,233,0,1,분양,사용승인,2020-05-12,2020-11-26,2022-08-18,2022-08-18,,2023-07-25,031-853-9561,
의정부시,의정부 더리브 센텀스퀘어 3동,,,경기도 의정부시 민락동 927-2,,준주거,6086,3621.09,B2/10,18127.63,,3312.96,20522.99,230,0,1,분양,사용승인,2020-05-13,2020-11-25,2022-08-18,2022-08-18,,2023-07-25,031-853-9638,
의정부시,한강듀클래스 의정부 고산 A동,,,경기도 의정부시 고산동 996-1,,준주거,7418.2,4422.73,B1/10,22821.06,,1802.94,23036.7,260,0,1,분양,사용승인,2020-04-29,2020-08-18,2022-07-28,2022-07-28,,2023-07-25,031-928-5295,
의정부시,한강듀클래스 의정부 고산 B동,,,경기도 의정부시 고산동 996-3,,준주거,7564.8,4501.2,B1/10,22027.51,,1927.18,22884.89,305,0,1,분양,사용승인,2020-04-29,2020-08-18,2022-07-28,2022-07-28,,2023-07-25,031-928-5295,
의정부시,한강듀클래스 의정부 고산 C동,,,경기도 의정부시 고산동 996-2,,준주거,5887.9,3528.42,B1/10,17547.95,,1524.73,17972.29,183,0,1,분양,사용승인,2020-04-29,2020-08-31,2022-08-12,2022-08-12,,2023-07-25,031-928-5295,
안양시,K-비즈리움,37.3940639870,126.9748129405,경기도 안양시 동안구 평촌동 87-10 평촌 K-비즈리움,경기도 안양시 동안구 흥안대로 445,일반공업,3402.8,19680.45,B3/11,14128.01,,5552.44,,148,,1,분양,준공,2018-06-27,2018-08-31,2020-07-03,2020-07-03,,2023-08-02,031-422-6990,
안양시,LS엠트론㈜하이테크센터,37.3738046643,126.9498242367,경기도 안양시 동안구 호계동 555-16,경기도 안양시 동안구 엘에스로116번길 39,준공업,8367.6,42238.33,B3/8,21811.11,,20427.22,,8,,1,분양,준공,2011-08-04,2011-10-18,2013-01-25,2013-01-25,,2023-08-02,031-8045-9429,
안양시,THE H TOWER 919 지식산업센터,,,경기도 안양시 동안구 관양동 919외 2필지,,일반공업,4558,27147.231,B2/15,23977.44,,3169.79,,139,,1,,건설중,,,,,,2023-08-02,,
안양시,관양두산벤처다임,37.4018698265,126.9667477669,경기도 안양시 동안구 관양동 1307-37 관양 두산 벤처다임,경기도 안양시 동안구 학의로 250,일반공업,6035.9,30355.45,B1/11,28859,,1496.45,,49,,1,분양,준공,2006-05-18,2006-06-01,2007-10-12,2007-10-12,,2023-08-02,031-596-6990,
안양시,금강펜테리움IT타워,37.4009700962,126.9691155194,경기도 안양시 동안구 관양동 810 금강펜테리움 IT 타워,경기도 안양시 동안구 학의로 282,일반공업,16613.4,132785.13,B3/22,120097,,12688.13,,400,,1,분양,준공,2008-12-22,2009-04-27,2011-12-09,2011-12-09,,2023-08-02,031-463-1115,
안양시,금정역 2차 SK V1 tower,37.3736234598,126.9476909297,경기도 안양시 동안구 호계동 555-2번지,경기도 안양시 동안구 엘에스로 136,준공업,10719.9,72915.77,B2/20,66939.49,,5976.28,,91,,1,분양,건설중,,,,,,2023-08-02,031-477-8850,
안양시,금정역 3차 SK V1 TOWER,,,경기도 안양시 동안구 호계동 555-26번지,,준공업,8717.7,56049.76,B2/10,53407.72,,2642.04,,377,,1,,건설중,,,,,,2023-08-02,,
안양시,대륭테크노타운 15차,37.3970275535,126.9743742407,경기도 안양시 동안구 관양동 224-5 대륭테크노타운15차,경기도 안양시 동안구 시민대로 401,일반공업,11448.7,101474.59,B3/21,82120,,19354.59,,242,,1,분양,준공,2008-12-22,2009-01-05,2010-09-28,2010-09-28,,2023-08-02,031-8040-9976,
안양시,동영벤처스텔 3차,37.3852578285,126.9357334186,경기도 안양시 만안구 안양동 202-4 동영벤처스텔,경기도 안양시 만안구 덕천로 45,일반공업,1764.2,7170.96,B1/8,6142,,1028.96,,16,,1,분양,준공,2001-04-23,2001-05-06,2001-12-07,2001-12-07,,2023-08-02,031-468-3171,
안양시,동영벤처스텔 5차,37.3876911495,126.9394430094,경기도 안양시 만안구 안양동 199-32 동영벤처스텔,경기도 안양시 만안구 덕천로72번길 72,일반공업,5289.3,22706.94,B1/8,21729,,977.94,,48,,1,분양,준공,2002-07-10,2002-07-20,2003-07-01,2003-07-01,,2023-08-02,031-468-1837,
안양시,동일테크노타운,37.3839800799,126.9361948292,경기도 안양시 만안구 안양동 202-6 동일테크노타운,경기도 안양시 만안구 덕천로 33,일반공업,1959.2,9926.77,B2/7,9820,,106.77,,26,,1,분양,준공,1996-02-06,1996-02-13,1996-12-02,1996-12-02,,2023-08-02,031-445-3523,
안양시,동일테크노타운 7차,37.4002278584,126.9704313633,경기도 안양시 동안구 관양동 823 동일테크노타운7차,경기도 안양시 동안구 벌말로 140,일반공업,3879,16684.4,B1/8,16480,,204.4,,45,,1,분양,준공,1996-10-18,1996-10-30,1997-09-10,1997-09-10,,2023-08-02,031-424-4845,
안양시,동일테크노타운 A,37.3976078816,126.9711050798,경기도 안양시 동안구 관양동 889-3,경기도 안양시 동안구 벌말로102번길 42,일반공업,1175.35,6539.34,B3/7,6163,,376.34,,12,,1,분양,준공,1995-03-02,,1995-09-20,1995-09-20,,2023-08-02,031-424-9604,
안양시,동일테크노타운 B,37.3981095494,126.9704123748,경기도 안양시 동안구 관양동 889,경기도 안양시 동안구 시민대로365번길 39,일반공업,1839,8695.87,B2/8,8246,,449.873,,24,,1,분양,준공,1995-05-23,1995-05-25,1995-12-19,1995-12-19,,2023-08-02,031-422-9042,
안양시,동일테크노타운 C,37.3981750711,126.9709542195,경기도 안양시 동안구 관양동 889-1 동일테크노타운,경기도 안양시 동안구 시민대로365번길 40,일반공업,4315,22185.08,B2/7,21854,,331.08,,61,,1,분양,준공,1995-11-15,1995-11-27,1996-09-23,1996-09-23,,2023-08-02,031-423-2190,
안양시,두림야스카와㈜안양사옥,37.3722434990,126.9494403440,경기도 안양시 동안구 호계동 555-15 두림야스카와,경기도 안양시 동안구 엘에스로 112,준공업,2833.5,16950.46,B3/8,13019.26,,3931.2,,20,,1,분양,준공,2016-05-19,2016-08-18,2017-12-29,2017-12-29,,2023-08-02,031-357-0350,
안양시,두산 명학 아너비즈타워,37.3879573180,126.9385486053,경기도 안양시 만안구 안양동 199 두산명학 아너비즈타워,경기도 안양시 만안구 전파로44번길 57,일반공업,6611.6,45627.05,B3/11,34983.79,,10643.26,,145,,1,분양,준공,2018-11-27,2019-02-18,2021-05-27,2021-05-27,,2023-08-02,031-5177-6500,
안양시,두산벤처다임,37.3916222637,126.9730111500,경기도 안양시 동안구 평촌동 126-1 두산벤처다임,경기도 안양시 동안구 흥안대로 415,일반공업,22729.7,114260.17,B1/12,99746,,14514.17,,280,,1,분양,준공,2004-09-03,2004-09-23,2006-03-28,2006-03-28,,2023-08-02,031-478-3114,
안양시,디지털엠파이어 A동,37.3967796160,126.9733478699,경기도 안양시 동안구 관양동 906-1 디지털 엠파이어,경기도 안양시 동안구 시민대로 387,일반공업,3018.6,20415.82,B3/13,9028,,11387.82,,35,,1,분양,준공,2010-02-22,2010-03-26,2011-12-26,2011-12-26,,2023-08-02,031-8086-7699,
안양시,디지털엠파이어 B동,37.3968206543,126.9724437561,경기도 안양시 동안구 관양동 906-4 디지털 엠파이어,경기도 안양시 동안구 시민대로 383,일반공업,3982.5,25052.09,B3/13,11747,,13305.09,,52,,1,분양,준공,2010-02-22,2010-03-26,2011-12-26,2011-12-26,,2023-08-02,031-8086-7699,
안양시,명지e스페이스,37.3840821877,126.9368153394,경기도 안양시 만안구 안양동 218 명지e스페이스,경기도 안양시 만안구 덕천로 34,일반공업,3066.5,13174.77,B1/8,12292,,882.77,,25,,1,분양,준공,2002-09-16,2002-10-17,2003-11-19,2003-11-19,,2023-08-02,031-448-1152,
안양시,박달동 하이테크 지식산업센터,,,경기도 안양시 박달동 617-12외 4,,준공업,6990,70778.6,B4/14,68390.4,,2388.2,,250,,1,,건설중,,,,,,2023-08-02,,
안양시,성일디지털타워,37.3830162540,126.9382239839,경기도 안양시 만안구 안양동 219-9 성일디지털타워,경기도 안양시 만안구 시민대로 34,일반공업,1444.6,7482.14,B2/6,7170,,312.14,,16,,1,분양,준공,2002-04-29,2002-06-07,2003-03-26,2003-03-26,,2023-08-02,031-466-4511,
안양시,스마트베이2차,37.3980691834,126.9714633747,경기도 안양시 동안구 관양동 891 안양 스마트베이2,경기도 안양시 동안구 벌말로102번길 49,일반공업,1654,8097.76,B2/13,5979.66,,2118.1,,45,,1,분양,준공,2018-03-27,2018-05-14,2019-10-30,2019-10-30,,2023-08-02,031-425-8111,
안양시,신원비젼타워,37.3893370482,126.9424921589,경기도 안양시 동안구 호계동 898 신원비젼타워,경기도 안양시 동안구 전파로 88,일반공업,6504.6,33834.55,B1/8,26989,,6845.55,,73,,1,분양,준공,2003-12-19,2004-10-08,2007-03-28,2007-03-28,,2023-08-02,031-478-8980,
안양시,아이에스비즈타워,37.3912558785,126.9717032631,경기도 안양시 동안구 평촌동 160-1 평촌역 아이에스비즈타워,경기도 안양시 동안구 흥안대로427번길 57-2,일반공업,8582.2,57607.6,B3/15,44008.31,,13599.29,,302,,1,분양,준공,2016-03-16,2016-04-22,2018-03-08,2018-03-08,,2023-08-02,031-8091-3119,
안양시,안양 SK V1센터,37.3740612160,126.9487832775,경기도 안양시 동안구 호계동 555-42 안양 SK V1 center,경기도 안양시 동안구 엘에스로116번길 25-32,준공업,8717.4,63763.8,B3/10,58781.51,,4982.29,,332,,1,분양,준공,2016-08-09,2016-10-27,2018-10-26,2018-10-26,,2023-08-02,031-990-6500,
안양시,안양 아이에스비즈타워 센트럴,37.3926189085,126.9388640512,경기도 안양시 만안구 안양동 1432 안양아이에스BIZ타워센트럴,경기도 안양시 만안구 덕천로152번길 25,일반공업,24777.6,216284.98,B2/28,187433.96,,28851.02,,1228,,1,분양,준공,2019-01-28,2019-03-26,2022-01-06,2022-01-06,,2023-08-02,031-420-5000,
안양시,안양2차 SK V1센터,37.3749937135,126.9477260608,경기도 안양시 동안구 호계동 555-34 안양2차 SK V1 center,경기도 안양시 동안구 엘에스로116번길 118,준공업,6932.9,51150.67,B3/10,47808,,3342.67,,298,,1,분양,준공,2018-11-29,2018-12-24,2020-12-23,2020-12-23,,2023-08-02,031-5175-1000,
안양시,안양IT밸리,37.3709395627,126.9481623644,경기도 안양시 동안구 호계동 1027 안양IT밸리,경기도 안양시 동안구 엘에스로91번길 16-39,일반공업,5764,29505.52,B1/12,14002,,15503.52,,80,,1,분양,준공,2008-05-07,2008-05-28,2009-11-27,2009-11-27,,2023-08-02,031-343-0114,
안양시,안양데시앙플렉스,37.3728807709,126.9488596807,경기도 안양시 동안구 호계동 555-45 호계 데시앙플렉스,경기도 안양시 동안구 엘에스로 122,일반공업,6715.2,41036.21,B2/10,33769.89,,7266.32,,235,,1,분양,준공,2017-11-05,2018-01-02,2019-10-30,2019-10-30,,2023-08-02,031-8033-0100,
안양시,안양동 219-2 지식산업센터,,,경기도 안양시 만안구 안양동 219-2,,일반공업,2472.8,1729.82,B4/11,19590.56,,1059.73,,143,,1,,건설중,,,,,,2023-08-02,,
안양시,안양디오밸리,37.3700518150,126.9530364977,경기도 안양시 동안구 호계동 555-9 국제유통단지 가동,경기도 안양시 동안구 엘에스로 76,준공업,25525,65560.07,B2/6,48442,,17118.07,,181,,1,분양,준공,1995-05-13,2004-09-15,2005-09-28,2005-09-28,,2023-08-02,031-479-3003,
안양시,안양메가밸리,37.4015310331,126.9675749609,경기도 안양시 동안구 관양동 799 메가밸리,경기도 안양시 동안구 학의로 268,일반공업,17694,92376.05,B2/8,84308,,8068.05,,166,,1,분양,준공,2002-10-05,2001-11-03,2003-05-19,2003-05-19,,2023-08-02,031-420-4330,
안양시,어반 플렉스 지식산업센터,,,경기도 안양시 동안구 관양동 905-1,,일반공업,1600,8272.58,B1/13,8272.58,,539.55,,60,,1,,건설중,,,,,,2023-08-02,,
안양시,에이스 하이테크 시티 평촌,37.3946625633,126.9736112280,경기도 안양시 동안구 관양동 911,경기도 안양시 동안구 흥안대로 457-27,일반공업,6508.7,44321.73,B2/15,32983.98,,11337.75,,193,,1,분양,준공,2018-10-15,2019-05-08,2021-07-29,2021-07-29,,2023-08-02,031-599-2525,
안양시,에이스평촌타워,37.3964600397,126.9704126836,경기도 안양시 동안구 관양동 883 에이스평촌타워,경기도 안양시 동안구 시민대로 361,일반공업,8538.8,47855.03,B3/15,31540,,16315.03,,110,,1,분양,준공,2010-03-26,2010-04-19,2012-03-20,2012-03-20,,2023-08-02,031-345-8114,
안양시,에이스하이테크시티 범계,37.3871877380,126.9435473406,경기도 안양시 동안구 호계동 900 에이스하이테크시티 범계,경기도 안양시 동안구 시민대로109번길 29,일반공업,7686.2,54794.1,B3/21,44270.7,,10523.4,,258,,1,분양,준공,2018-07-05,2018-09-28,2021-03-03,2021-03-03,,2023-08-02,031-423-4773,
안양시,유천팩토피아,37.3899554806,126.9360484109,경기도 안양시 만안구 안양동 196 유천팩토피아,경기도 안양시 만안구 전파로 30(안양동),일반공업,13650,72468.29,B3/8,63845,,8623.29,,182,,1,분양,준공,1990-08-31,1990-12-20,1992-10-31,1992-10-31,,2023-08-02,031-467-3000,
안양시,인덕원 LDC 비즈타워,,,경기도 안양시 동안구 관양동 945-11번지외 2필지,,일반공업,4917.9,34114.15,B3/10,32810.42,,1303.73,,273,,1,,건설중,,,,,,2023-08-02,,
안양시,인덕원성지스타위드,37.3929712079,126.9723125739,경기도 안양시 동안구 관양동 954-6 인덕원성지스타위드,경기도 안양시 동안구 흥안대로427번길 38,일반공업,8667.2,52148.83,B2/15,48699,,3449.83,,242,,1,분양,준공,2008-09-03,2008-09-25,2010-08-30,2010-08-30,,2023-08-02,031-345-6114,
안양시,인덕원역 AK 밸리 지식산업센터,,,"경기도 안양시 동안구 평촌동119,119-5, 87-6, 88-3 ~ 5",,일반공업,4938.5,30831.85,B2/15,27651.14,,3180.71,,70,,1,,건설중,,,,,,2023-08-02,,
안양시,인덕원역 더리브 디하우트,,,경기도 안양시 동안구평촌동 82번지,,일반공업,5402,36230.85,B4/13,27769.85,,8461,,210,,1,분양,건설중,,,,,,2023-08-02,,
안양시,평촌디지털엠파이어,37.3930047425,126.9737696854,경기도 안양시 동안구 관양동 954-1 평촌디지털엠파이어,경기도 안양시 동안구 흥안대로427번길 16,일반공업,7898.9,51145.16,B3/13,46758.18,,4386.98,,288,,1,분양,준공,2015-12-30,2015-12-31,2018-02-12,2018-02-12,,2023-08-02,031-8069-5000,
안양시,평촌스마트베이,37.3994702623,126.9683239254,경기도 안양시 동안구 관양동 792-2 평촌스마트베이,경기도 안양시 동안구 벌말로 123,일반공업,7628.6,46561.18,B1/21,35252,,11309.18,,186,,1,분양,준공,2012-11-28,2013-01-08,2014-05-28,2014-05-28,,2023-08-02,031-426-9682,
안양시,평촌역 하이필드,37.3943403122,126.9700773764,경기도 안양시 동안구 관양동 922 평촌역 하이필드,경기도 안양시 동안구 벌말로 66,일반공업,14674,94081.5,B2/17,66849.28,,27232.22,,390,,1,분양,준공,2016-07-19,2016-08-26,2018-11-15,2018-11-15,,2023-08-02,031-8084-9600,
안양시,평촌오비즈타워,37.3997224989,126.9702993402,경기도 안양시 동안구 관양동 1802 평촌 오비즈타워,경기도 안양시 동안구 벌말로 126,일반공업,15047,124171.03,B3/35,51777,,72394.03,,330,,1,분양,준공,2012-02-02,2012-08-29,2014-12-26,2014-12-26,,2023-08-02,031-450-3110,
안양시,한국프라자,37.3703754224,126.9508996095,경기도 안양시 동안구 호계동 1029-6,경기도 안양시 동안구 엘에스로 91,일반공업,945.6,3992.95,B1/5,3058,,934.95,,7,,1,분양,준공,2003-02-12,2003-03-04,2003-10-08,2003-10-08,,2023-08-02,031-429-4296,
안양시,호계 금정역 SK V1 센터,37.3742779575,126.9469406979,경기도 안양시 동안구 호계동 555-37 호계 금정역 SK V1 center,경기도 안양시 동안구 엘에스로 142,준공업,8482.9,55373.23,B2/10,51772.63,,3600.6,,152,,1,분양,준공,2018-09-11,2018-11-22,2020-08-24,2020-08-24,,2023-08-02,031-477-9952,
안양시,호계동 1029-4 지식산업센터,,,경기도 안양시 동안구 호계동 1029-4번지,,일반공업,2328.2,15321.61,B2/9,14402.77,,918.84,,40,,1,,건설중,,,,,,2023-08-02,,
부천시,(주)두성기계연구,37.5114561915,126.7841024624,경기도 부천시 도당동 99-9번지,경기도 부천시 도약로307번길 22 (도당동),일반공업,595,1559.72,B0/4,1439.88,,152,,6,,1,분양,사용승인,,,,2005-05-31,,2023-02-02,,
부천시,(주)아이에스인터내셔날,37.5279265141,126.7756833273,경기도 부천시 오정동 810-1번지,경기도 부천시 신흥로511번길 13-39 (오정동),준주거,2784,3993.1,B0/5,3794.92,,198.18,,11,,1,분양,사용승인,,,,2019-10-24,,2023-02-02,,
부천시,BK테크노밸리,37.5279785782,126.7753546171,경기도 부천시 오정동 810-1번지,경기도 부천시 오정동 810-1번지,준주거,2784,4114.4,B0/5,4111.4,,0,,9,,1,분양,사용승인,,,,2019-10-24,,2023-02-02,,
부천시,고산테크노타운,37.5113946093,126.7843519800,경기도 부천시 도당동 99-1번지,"경기도 부천시 부천로 307 (도당동, 고산테크노밸리)",일반공업,990,3775.74,B1/5,1614.27,,1899.33,,11,,1,분양,사용승인,,,,2005-05-27,,2023-02-02,,
부천시,광양프런티어밸리5차지식산업센터,37.4663480272,126.8278206105,경기도 부천시 약대동 177,"경기도 부천시 양지로 237 (옥길동, 광양프런티어밸리 5차 지식산업센터)",준주거,5107.9,36421.33,B2/10,31417.02,,5004.31,,100,,1,분양,사용승인,,,,2022-01-26,,2023-02-02,,
부천시,괴안동 아파트형 공장,,,경기도 부천시 괴안동 190-14번지,"경기도 부천시 경인로 579 (괴안동, 대원빌딩)",주거,905,2259.75,B0/4,1166,,132,,,,2,분양,사용승인,,,,2005-03-04,,2023-02-02,,
부천시,구심이엔지,37.5141389774,126.7761786948,경기도 부천시 도당동 222-41번지,경기도 부천시 수도로 88-26 (도당동),일반공업,913,3878.9,B1/6,3878.9,,0,,7,,1,분양,사용승인,,,,2018-10-22,,2023-02-02,,
부천시,남성산업(주),37.4833228298,126.7661041544,경기도 부천시 송내동 387-18번지,경기도 부천시 경인로92번길 15 (송내동),준공업,1605,2438.2,B0/4,1795.84,,309.95,,6,,1,분양,사용승인,,,,2007-09-20,,2023-02-02,,
부천시,뉴테크노타운,37.5260535699,126.7804093869,경기도 부천시 내동 212-28번지,"경기도 부천시 오정로 183-9 (내동, 뉴테크노타운)",일반공업,992,3638.7,B1/6,1918.4,,1717.13,,12,,1,분양,사용승인,,,,2003-12-30,,2023-02-02,,
부천시,다온테크노벨리,37.5284600796,126.7759724242,경기도 부천시 오정동 808-4번지,경기도 부천시 신흥로511번길 13-34 (오정동),준주거,1043,3886.33,B1/6,2960.39,,925.94,,0,,1,분양,사용승인,,,,2007-03-28,,2023-02-02,,
부천시,다우테크노타운,37.5228757647,126.7870036022,경기도 부천시 내동 344번지,"경기도 부천시 삼작로233번길 57 (내동, 다우테크노타운)",주거,2437,7970.49,B1/6,5733.04,,2237.46,,28,,1,분양,사용승인,,,,2002-07-26,,2023-02-02,,
부천시,다우테크노타운Ⅱ,37.5182591859,126.7807784608,경기도 부천시 내동 196번지,"경기도 부천시 옥산로 276-1 (내동, 다우테크노타운Ⅱ)",일반공업,1044,4058.8,B1/6,2627.1,,1365.92,,28,,1,분양,사용승인,,,,2003-05-10,,2023-02-02,,
부천시,대우테크노타운,37.4848819314,126.7704323140,경기도 부천시 송내동 558번지,경기도 부천시 경인로133번길 14 (송내동),준주거,1388,4013.54,B1/15,3045.5,,968.04,,483,,1,분양,사용승인,,,,1980-06-16,,2023-02-02,,
부천시,대우테크노파크,37.5117074849,126.7780012653,경기도 부천시 도당동 187-7번지,"경기도 부천시 도약로 261 (도당동, 부천대우테크노파크)",일반공업,27607,126847.95,B1/15,117008,,9265.45,,483,,4,분양,사용승인,,,,2006-07-13,,2023-02-02,,
부천시,덕성테크노밸리,37.4661256002,126.8126583433,경기도 부천시 옥길동 775-3번지,경기도 부천시 범안로219번길 87 (옥길동),준주거,2701,10226.6,B1/6,8807,,1658.16,,10,,1,분양,사용승인,,,,2016-11-17,,2023-02-02,,
부천시,디클래스I,37.5196980873,126.7832089549,경기도 부천시 내동 263-1번지,경기도 부천시 부천로397번길 26 (내동),일반공업,490,1326.32,B0/4,1151.56,,174.76,,6,,1,분양,사용승인,,,,2018-05-14,,2023-02-02,,
부천시,부천콘텐츠센터,37.4819519950,126.7616385967,경기도 부천시 송내동 398-4번지,경기도 부천시 경인로60번길 40 (송내동),제2종일반주거,4671,3058.69,B1/4,1098.616,,1434.734,,26,,1,임대,사용승인,,,,1985-07-15,,2023-02-02,,
부천시,부천테크노밸리 U1 Center,,,경기도 부천시 원미동 39-1번지,경기도 부천시 조마루로385번길 96 (원미동),준공업,10635,104779.18,B3/20,100140.64,,6638.54,,350,,1,분양,사용승인,,,,2021-06-21,,2023-02-02,,
부천시,부천테크노파크1단지,37.5195510866,126.7622640731,경기도 부천시 삼정동 364번지 부천테크노파크,"경기도 부천시 삼작로 22, 부천테크노파크 (삼정동)",근린상업,32451,74787.42,B1/9,69871.72,,4915.7,,400,,4,분양,사용승인,,,,2000-04-30,,2023-02-02,,
부천시,부천테크노파크2단지,37.5169012264,126.7622788457,경기도 부천시 약대동 192번지 부천테크노파크,"경기도 부천시 송내대로 388, 부천테크노파크 (약대동)",근린상업,31790,89106.19,B1/15,69782.15,,19324.04,,450,,4,분양,사용승인,,,,2000-10-24,,2023-02-02,,
부천시,부천테크노파크쌍용3차,37.5231773138,126.7670606162,경기도 부천시 삼정동 36-1번지,경기도 부천시 석천로 397 (삼정동),일반공업,73273,330282.12,B1/13,315161.09,,15121.05,,13,,13,분양,사용승인,,,,2007-12-05,,2023-02-02,,
부천시,부천테크노파크제3공장,37.5185141442,126.7650919760,경기도 부천시 삼정동 365번지 외 1필지,"경기도 부천시 석천로 345 (삼정동, 부천테크노파크) 외 1필지",근린상업,42937,122080.74,B1/9,102124.2,,19956.54,,400,,5,분양,사용승인,,,,2004-03-29,,2023-02-02,,
부천시,부천테크노파크제4공장,37.5175189221,126.7644906786,경기도 부천시 약대동 193번지,"경기도 부천시 평천로 655 (약대동, 부천 테크노파크)",근린상업,26521,77056.96,B1/15,74492.54,,2270.82,,400,,4,분양,사용승인,,,,2004-03-26,,2023-02-02,,
부천시,비즈타워,37.5128395905,126.7759423100,경기도 부천시 도당동 222-12번지,경기도 부천시 정주로 94 (도당동),일반공업,2579,13358.95,B2/7,9366.96,,4011.29,,65,,1,분양,사용승인,,,,2019-08-20,,2023-02-02,,
부천시,삼보테크노타워,37.5016398102,126.7914594723,경기도 부천시 춘의동 195번지,경기도 부천시 조마루로385번길 122 (춘의동),준공업,19410,181159.81,B4/27,170755.24,,10404.57,,806,,1,분양,사용승인,,,,2018-04-25,,2023-02-02,,
부천시,삼아벤처타운,37.5108363167,126.7814720133,경기도 부천시 도당동 163-15번지 외 2필지,"경기도 부천시 도약로 287 (도당동, 부천테크노월드) 외 2필지",일반공업,3124,11740.4,B1/6,7494.5,,4227.9,,26,,1,분양,사용승인,,,,2004-08-09,,2023-02-02,,
부천시,서림테크노파크 3차,37.4992838354,126.7923867872,경기도 부천시 원미동 4-9번지,경기도 부천시 원미로 187 (원미동),준공업,1319,5518.28,B4/8,5518.28,,0,,6,,1,분양,사용승인,,,,2017-12-14,,2023-02-02,,
부천시,서림테크노파크II,37.5103398205,126.7843167918,경기도 부천시 도당동 253-1번지,경기도 부천시 부천로 295 (도당동),일반공업,1338,7002.16,B2/6,3858.8,,3662.56,,43,,1,분양,사용승인,,,,2016-12-25,,2023-02-02,,
부천시,서림테크노파크Ⅰ,37.5023404416,126.7880587671,경기도 부천시 춘의동 165-1번지,경기도 부천시 부천로198번길 27 (춘의동),준공업,2854,21353.06,B4/8,8867.8,,3216.83,,82,,1,분양,사용승인,,,,2016-07-22,,2023-02-02,,
부천시,서영 아너시티2,37.4677964569,126.8241776363,경기도 부천시 옥길동 793-2 외 1필지,경기도 부천시 양지로 205 (옥길동) 외 1필지,준주거,5255.8,31890.06,B3/10,22346.939,,9517.16,,301,,1,분양,사용승인,,,,2020-07-20,,2023-02-02,,
부천시,송내테크노밸리,37.4865283829,126.7540716037,경기도 부천시 송내동 299-5번지 외 1필지,경기도 부천시 송내대로30번길 13 (송내동) (총 2 필지) 외 1필지,준공업,3278,14866.28,B1/7,7986.65,,6879.63,,37,,1,분양,사용승인,,,,2003-10-11,,2023-02-02,,
부천시,송림벨리타운,37.5284652748,126.7753499087,경기도 부천시 오정동 808-2번지,경기도 부천시 신흥로511번길 13-42 (오정동),준주거,1477,4732.58,B1/7,4085.6,,646.98,,9,,1,분양,사용승인,,,,2017-09-28,,2023-02-02,,
부천시,신중동 더퍼스트 지식산업센터,37.5091915039,126.7763283044,경기도 부천시 약대동 177,경기도 부천시 정주로 53 (약대동),일반공업,4129,29045.39,B1/13,20342.504,,8702.886,,135,,1,분양,사용승인,,,,2021-02-04,,2023-02-02,,
부천시,신한테크노벨리,37.5278770153,126.7764307584,경기도 부천시 오정동 810-3번지,경기도 부천시 신흥로511번길 13-23 (오정동),준주거,1524,4507.25,B0/5,3949.9,,567.1,,6,,1,분양,사용승인,,,,2017-03-29,,2023-02-02,,
부천시,옥길지식산업센터,37.4649265990,126.8126240884,경기도 부천시 옥길동 775-7,경기도 부천시 범안로219번길 71(옥길동),준주거지역,3506.2,25209.49,B2/10,17859.69,,7349.8,,260,,1,분양,사용승인,,,,2023-01-11,,2023-02-02,,
부천시,와이엔벤처타운,37.5129262611,126.7842468333,경기도 부천시 도당동 95-2번지 와이엔벤처타운,"경기도 부천시 부천로 323 (도당동, y-제니스 파크)",일반공업,2828,14657.31,B2/7,6447.01,,8226.1,,35,,1,분양,사용승인,,,,2004-10-28,,2023-02-02,,
부천시,우성테크노파크,37.4676493736,126.8252532588,경기도 부천시 옥길동 794-1,경기도 부천시 부광로 220 (옥길동),준주거,5908,45554.4,B3/10,31885.61,,13661.95,,335,,1,분양,사용승인,,,,2020-11-03,,2023-02-02,,
부천시,우정테크노벨리,37.5284622183,126.7748519661,경기도 부천시 오정동 808-1번지,경기도 부천시 신흥로511번길 61 (오정동),준주거,2486,8578.95,B1/7,8578.95,,0,,7,,1,분양,사용승인,,,,2017-08-28,,2023-02-02,,
부천시,은성테크노,37.5137568274,126.7755939886,경기도 부천시 도당동 222-39번지,경기도 부천시 신흥로 338 (도당동),일반공업,1061,4515.35,B1/6,4191.99,,323.36,,14,,1,분양,사용승인,,,,2017-11-13,,2023-02-02,,
부천시,은하테크노,37.5279648556,126.7760564332,경기도 부천시 오정동 810-2번지,경기도 부천시 신흥로511번길 13-33 (오정동),준주거,1418,4210.3,B1/5,3338.1,,872.2,,8,,1,분양,사용승인,,,,2017-04-05,,2023-02-02,,
부천시,인철테크노밸리,37.5265727130,126.7695398273,경기도 부천시 삼정동 67-6번지 외 1필지,경기도 부천시 석천로 453 (삼정동) 외 1필지,일반공업,2780,11894.95,B1/6,8992.14,,2901.8,,30,,1,분양,사용승인,,,,2017-02-14,,2023-02-02,,
부천시,인철테크노밸리2차,37.5285043718,126.7612931324,경기도 부천시 삼정동 16-16번지,경기도 부천시 송내대로 506 (삼정동),일반공업,1344,5742.81,B1/6,5266.45,,476.36,,6,,1,분양,사용승인,,,,2018-09-28,,2023-02-02,,
부천시,춘의디아크원,37.5048101300,126.7880579425,경기도 부천시 춘의동 73-1 춘의 디아크원,"경기도 부천시 길주로411번길 20 (춘의동, 춘의 디아크원)",일반공업지역,4104.5,24365.24,B2/13,18945.33,,5419.91,,244,,1,분양,사용승인,,,,2022-12-14,,2023-02-02,,
부천시,춘의테크노타워,37.5002401253,126.7895268118,경기도 부천시 원미동 41-2번지,경기도 부천시 조마루로385번길 80 (원미동),준공업,3811,29262.22,B3/13,15198.93,,14063.29,,155,,1,분양,사용승인,,,,2016-09-09,,2023-02-02,,
부천시,춘의테크노파크,37.5019165378,126.7895109266,경기도 부천시 춘의동 200-1번지,"경기도 부천시 부천로198번길 36 (춘의동, 춘의테크노파크)",일반공업,13402,84738.41,B1/15,80470.5,,4486.86,,260,,3,분양,사용승인,,,,2005-10-18,,2023-02-02,,
부천시,춘의테크노파크Ⅱ,37.5014766966,126.7883158654,경기도 부천시 춘의동 202번지,"경기도 부천시 부천로198번길 18 (춘의동, 춘의테크노파크II)",준공업,12086,77450.69,B1/15,73884.36,,3566.33,,150,,2,분양,사용승인,,,,2006-10-27,,2023-02-02,,
부천시,한일테크노타워,37.5284763705,126.7756893279,경기도 부천시 오정동 808-3번지,경기도 부천시 신흥로511번길 13-38 (오정동),준주거,1042,4414.33,B1/7,3002.5,,1411.83,,10,,1,분양,사용승인,,,,2017-05-16,,2023-02-02,,
광명시,GIDC광명역,37.4226922567,126.8869683833,경기도 광명시 일직동 514,경기도 광명시 일직로 43,준주거,32864,269190,B5/29,,,,,1196,1196,3,분양,사용승인,,,,2021-11-12,,2023-06-20,,
광명시,광명G타워,37.4457865683,126.8942300888,경기도 광명시 소하동 1344,경기도 광명시 소하로 190,준주거,17255,156427,B4/15,,,,,710,710,1,분양,사용승인,,,,2022-04-18,,2023-06-20,,
광명시,광명시범공단,37.4569077199,126.8851853909,경기도 광명시 하안동 201,경기도 광명시 하안로 228,근린상업,20539,42616,B1/7,,,,,147,147,4,분양,사용승인,,,,1992-07-20,,2023-06-20,,
광명시,광명역엠클러스터,37.4242252152,126.8870915080,경기도 광명시 일직동 501-4,경기도 광명시 덕안로104번길 17,준주거,11156,97384,B4/17,,,,,407,407,1,분양,사용승인,,,,2020-11-23,,2023-06-20,,
광명시,광명역자이타워,37.4196800108,126.8883829899,경기도 광명시 일직동 515-1,경기도 광명시 새빛공원로 67,준주거,19516,119836,B2/25,,,,,656,656,2,분양,사용승인,,,,2019-08-21,,2023-06-20,,
광명시,광명테크노타운,37.4927658199,126.8685001666,경기도 광명시 철산동 626-3,경기도 광명시 안양천로502번길 15,제2종일반주거,2425,13237,B2/8,,,,,28,28,1,분양,사용승인,,,,2002-07-13,,2023-06-20,,
광명시,광명테크노파크,37.4447217305,126.8939899644,경기도 광명시 소하동 1345,경기도 광명시 하안로 60,준주거,36443,256370,B2/15,,,,,634,634,5,분양,사용승인,,,,2010-10-27,,2023-06-20,,
광명시,광명현대테라타워,37.4591925244,126.8757025895,경기도 광명시 하안동 303,경기도 광명시 오리로651번길 8,일반상업,8268,99815,B5/16,,,,,633,633,1,분양,사용승인,,,,2023-01-20,,2023-06-20,,
광명시,에이스광명타워,37.4477501370,126.8922018864,경기도 광명시 소하동 1365,경기도 광명시 하안로 108,준주거,9190,69877,B3/11,,,,,156,156,1,분양,사용승인,,,,2011-09-09,,2023-06-20,,
광명시,티아모IT타워,,,경기도 광명시 하안동 304,,일반상업,4882,56670,B4/16,,,,,362,362,1,분양,건설중,,,,,,2023-06-20,,
평택시,(주)우연에셋,,,경기도 평택시 소사벌지구 지원시설용지 1-1BL (죽백동 729번지),,준주거,8518.1,5945.63,,58331.61,,1342.5,,250,,,분양+임대,착공전,,,,,,2023-08-25,,
평택시,ACE101,,,경기도 평택시 해창리 1268,,준주거,9410.4,6580.9,B1/10,27812.15,,1373.69,30322.23,423,,,분양+임대,건설중,,,,,6158618290,2023-08-25,02-6309-6059,
평택시,JH타워지식산업센터,,,경기도 평택시 모곡동 438-1,,공업,9898.5,7236.31,B1/12,27787,,4044,7118,418,,,분양+임대,건설중,,,,,,2023-08-25,1877-9610,
평택시,W-TOWER,,,경기도 평택시 해창리 1278-2,,준주거,7351.3,5140.45,B1/10,21557.15,,873.23,23271.5,315,,,분양+임대,건설중,,,,,1208184768,2023-08-25,031-8069-5505,
평택시,㈜그랜드코리아,,,경기도 평택시 모곡동 449-6,,공업,4835.9,2821.12,B1/7,10970,,687.87,9199.76,242,,,분양+임대,건설중,,,,,1878802303,2023-08-25,1577-6798,
평택시,고덕 G1,37.0288110642,127.0159247539,경기도 평택시 고덕면 해창리 1270,경기도 평택시 도시지원1길 116,준주거,8793.1,6150.97,B1/10,25882,,1757.58,26819.129,627,,,분양+임대,준공,2021-04-26,2021-10-19,2023-07-20,2023-07-20,1078185459,2023-08-25,031-611-2001,
평택시,고덕STV지식산업센터,37.0265412159,127.0163551405,"경기도 평택시 고덕면 해창리 1277-1, 1277-2",경기도 평택시 고덕면 도시지원1길 19,준주거,12858.7,8995.48,B2/10,49904,,38836,88741,750,,,분양+임대,준공,2020-04-13,2020-07-20,2022-06-30,2022-06-30,1168165952,2023-08-25,031-611-7513,
평택시,고덕비즈타워,37.0272923139,127.0170699232,경기도 평택시 고덕면 해창리 1274-3,경기도 평택시 고덕면 도시지원1길 16,준주거,5306.9,3454.52,B2/10,11926.44,,2918.69,14714.87,306,,,분양+임대,준공,2019-04-30,2019-06-05,2021-01-11,2021-01-11,2148634082,2023-08-25,031-668-9212,
평택시,금호 STV 더 라이브,,,경기도 평택시 해창리 1278-3,,준주거,7414.2,5169.66,B1/10,21931.89,,646.6,25956.77,316,,,분양+임대,건설중,,,,,1168165952,2023-08-25,1811-0611,
평택시,더퍼스트타워,37.1191903245,127.0779359128,경기도 평택시 진위면 갈곶리 737-2,경기도 평택시 진위면 진위2산단로 140,공업,10442.6,7834.75,B2/10,50200,,9436,26144,385,,,분양+임대,준공,2018-02-13,2018-09-01,2020-02-27,2020-02-27,1208167944,2023-08-25,1811-0371,
평택시,디이스트 메가플렉스,37.0328519148,127.0908160244,경기도 평택시 칠괴동 577-6,경기도 평택시 산단로 255,공업,32921,17635,B1/19,,,,,,,,분양+임대,착공전,,,,,1198669627,2023-08-25,031-457-6001,
평택시,마제스트타워,37.0358024481,127.0712016083,경기도 평택시 모곡동 447-1,경기도 평택시 산단로16번길 12,공업,9702.7,6704.13,B1/10,48030,,7525,1832,398,,,분양+임대,준공,2020-06-08,2020-12-29,2022-12-19,2022-12-19,4378101495,2023-08-25,031-653-9221,1877-9610
평택시,부성U타워,,,"경기도 평택시 모곡동 438-8, 438-10, 438-11",,공업,11576,8182.19,B1/14,64888,,2442.26,23026,705,,,분양+임대,건설중,2020-10-27,2020-12-21,,,7908101080,2023-08-25,1800-7865,
평택시,삼성비지니스센터,37.0436840815,127.0549190357,경기도 평택시 고덕면 여염리 4388-3,경기도 평택시 고덕면 고덕여염로 118,준주거,8413.4,5858.44,B3/10,18267.09,,6812.73,24252.66,495,,,분양+임대,준공,2020-02-25,2020-05-15,2022-06-09,2022-06-09,1208658362,2023-08-25,031-668-6002,
평택시,삼성에이아이센터,37.0456534777,127.0536592750,경기도 평택시 고덕면 여염리 4391-3,경기도 평택시 고덕면 고덕중앙로 294,준주거,3859.3,2453.65,B2/9,8980.17,,2353.93,11082.28,239,,,분양+임대,준공,2018-10-24,2018-11-06,2020-08-21,2020-08-21,1208658362,2023-08-25,044-865-0120,
평택시,송탄 세종그랑시아,37.0795201275,127.0560822119,경기도 평택시 지산동 768-3 (외 5필지),경기도 평택시 지산로11번길 7,일반상업,1239,950.11,B4/13,5369.22,,1267.79,6460,117,,,분양+임대,준공,2016-06-13,2018-06-12,2022-12-14,2022-12-14,1208658362,2023-08-25,02-6902-9774,
평택시,스마트시티,37.0078342441,127.1169596519,경기도 평택시 죽백동 736,경기도 평택시 비전3로 157,준주거,3289,1626.99,B0/4,2885.2,,1475.17,4920,18,,,분양+임대,준공,2019-08-02,2019-10-14,2020-08-05,2020-08-05,3970501024,2023-08-25,031-655-9880,
평택시,스마트큐브,37.1219391906,127.0678007049,경기도 평택시 진위면 갈곶리 728-2,경기도 평택시 진위면 진위2산단로 15-20,공업,6569,6249.04,B0/8,35514,,5701,20607,181,,,분양+임대,준공,2017-12-18,2018-04-20,2020-02-24,2020-02-24,1078607628,2023-08-25,1544-8355,
평택시,에스타워,37.0439673106,127.0559294647,경기도 평택시 고덕면 여염리 4388-2,경기도 평택시 고덕면 고덕중앙로 322,준주거,6361.5,3941.3,B2/10,14495.81,,3622.43,17970.85,324,,,분양+임대,준공,2018-09-12,2018-12-17,2020-12-16,2020-12-16,1078197673,2023-08-25,031-668-9199,
평택시,에스타워프라임,37.0282281747,127.0166704925,경기도 평택시 고덕면 해창리 1272-3,경기도 평택시 고덕면 도시지원1길 111,준주거,8458.2,5799.59,B1/10,22323.27,,1325.15,23633.87,428,,,분양+임대,준공,2019-07-03,2019-12-11,2021-09-10,2021-09-10,1208167944,2023-08-25,031-662-7800,
평택시,에이스퍼스트고덕,37.0456960079,127.0529842890,경기도 평택시 고덕동 2048-2,경기도 평택시 고덕중앙로 290(고덕동),준주거,10577.2,7287.1,B2/10,26688.8,,6660.22,19968,651,,,분양+임대,준공,2018-01-18,2018-10-24,2020-10-29,2020-10-29,2148634082,2023-08-25,031-666-9573,
평택시,오션센트럴비즈,,,경기도 평택시 포승읍 만호리 687-2,,공업,40663,22886,B2/40,106123,,11958,53180,2063,,,분양+임대,건설중,,,,,7638601481,2023-08-25,1566-0311,
평택시,제이에스지식산업센터(가칭),37.0307371186,127.0713987376,경기도 평택시 모곡동 451-8,경기도 평택시 산단로64번길 110,공업,6507,,B1/12,,,,,,,,분양+임대,착공전,,,,,,2023-08-25,041-566-8860,
평택시,지식공작소 아이타워,37.0272893376,127.0163391545,경기도 평택시 고덕면 해창리 1274-2,경기도 평택시 고덕면 도시지원로 121,준주거,5419.2,3792.16,B1/10,14483.43,,997.1,15334.47,302,,,분양+임대,준공,2019-07-03,2021-09-30,2023-07-19,2023-07-19,1078607628,2023-08-25,031-654-7801,
평택시,지제역센트럴타워지식산업센터,37.0108058479,127.0813348626,경기도 평택시 세교동 541-1,경기도 평택시 세교산단로 37,공업,13565,10093,B1/11,42834,,1825,7628,547,,,분양+임대,건설중,,,,,,2023-08-25,1577-2765,
평택시,트라움파트너스,,,경기도 평택시 소사벌지구 지원시설용지 4BL (죽백동 814번지),,준주거,46962,360107.67,,346480.67,,13626.89,,1000,,,분양+임대,착공전,,,,,,2023-08-25,,
평택시,평택스마트팩토리,37.0492747120,126.9759048428,경기도 평택시 청북읍 어연리 906,경기도 평택시 청북읍 백봉길 3,계획관리,13547,8118.98,B2/4,20448,,4713.31,20781,282,,,분양+임대,준공,2019-05-23,2019-07-25,2020-11-25,2020-11-25,2148634082,2023-08-25,031-686-7901,
평택시,평택지제역엠에스원타워,,,경기도 평택시 모곡동447-3,,공업,10083,7606.84,B2/17,60702,,3495,13455,480,,,분양+임대,착공전,,,,,,2023-08-25,1533-1539,1877-9610
평택시,프리미엄 원희캐슬 고덕신도시,37.0443437124,127.0553425105,경기도 평택시 고덕면 여염리 4388-1,경기도 평택시 고덕면 고덕중앙로 320,준주거,5619.3,3659.1,B3/10,15102.31,,3400.84,17863,347,,,분양+임대,준공,2018-10-02,2018-11-06,2020-06-16,2020-06-16,2148634082,2023-08-25,031-611-7718,
동두천시,두드림패션센터,37.8902057823,127.0539092204,경기도 동두천시 지행동 722-3번지,경기도 동두천시 동두천로 97,준주거,3933,1700.95,B3/10,7342.73,0,523.39,143.76,20,14,1,임대,사용승인,2011-12-02,2012-02-13,2013-10-21,2013-10-21,,2023-07-31,,
동두천시,싸이언스타워,37.8902057823,127.0539092204,경기도 동두천시 지행동 722-3번지,경기도 동두천시 동두천로 97,준주거,3464,1011.44,B1/8,4801.27,0,1263.61,2847.2,31,17,1,분양+임대,사용승인,2006-03-08,,2007-07-13,2007-07-13,,2023-07-31,,
동두천시,태일전기,37.9054967198,127.0388130385,경기도 동두천시 상패동 211-1번지,경기도 동두천시 삼육사로 774-24,준주거,7110,1401,B0/4,5681,0,40,0,10,3,1,분양,사용승인,2006-07-11,2007-05-01,2009-08-25,2009-08-25,,2023-07-31,,
안산시,광림원시타워,,,경기도 안산시 단원구 원시동 782-13,,일반공업,5606,,B0/3,4987.87,,941,,20,12,1,분양,준공,,2009-06-02,2009-10-19,2009-06-02,,2023-07-24,,
안산시,광양프런티어밸리,,,경기도 안산시 단원구 목내동 457,,일반공업,8790.1,,B0/4,27192.23,,1260,,64,64,1,분양,준공,,2012-05-01,2012-12-28,2012-05-04,,2023-07-24,,
안산시,광영프런티어밸리-2,,,경기도 안산시 단원구 목내동 403-3,,일반공업,10733,,B1/7,54360,,26772,,149,82,1,분양,준공,,2014-11-17,2015-11-31,2014-09-19,,2023-07-24,,
안산시,대우테크노피아,,,경기도 안산시 단원구 원시동 768-1,,일반공업,16811.8,,B1/7,80180.09,,15906,,258,232,1,분양,준공,,2007-10-01,2009-01-22,2007-10-01,,2023-07-24,,
안산시,라드 스마트스퀘어 지식산업센터,,,경기도 안산시 단원구 신길동 1229,,일반공업,33515,,B1/13,194365,,97186,,1339,1,1,분양,준공,,2018-05-30,2020-09-10,2020-08-26,,2023-07-24,,
안산시,반월공단테크노시티,,,경기도 안산시 단원구 목내동 447-6,,일반공업,4871.5,,B1/4,10385.49,,2190,,40,40,1,분양,준공,,2002-05-24,2002-10-11,2002-05-23,,2023-07-24,,
안산시,반월디지털,,,경기도 안산시 단원구 초지동 653-6,,일반공업,9370.9,,B0/3,6973.74,,791,,31,25,3,분양,준공,,2011-01-25,2011-06-07,2011-05-23,,2023-07-24,,
안산시,반월하이테크빌리지,,,경기도 안산시 단원구 원시동 768-5,,일반공업,3649.8,,B2/6,16292.02,,3245,,75,60,1,분양,준공,,2007-02-09,2008-01-24,2007-02-09,,2023-07-24,,
안산시,빅창반월아파트형공장,,,경기도 안산시 단원구 성곡동 609-2,,일반공업,6198.8,,B0/4,11506.52,,0,,29,20,1,분양,준공,,2007-03-21,2007-12-20,2007-03-21,,2023-07-24,,
안산시,서흥테크노벨리,,,경기도 안산시 단원구 원시동 731-4,,일반공업,11523.2,,B1/6,49415.69,,9734,,199,199,1,분양,준공,,2003-11-10,2005-01-29,2003-12-10,,2023-07-24,,
안산시,시화지식산업센터(시화아파트형임대공장),,,경기도 안산시 단원구 성곡동 672,,일반공업,41951.8,,B1/3,44179.48,,11039,,110,110,2,임대,준공,,1994-05-14,1998-06-11,1993-12-15,,2023-07-24,,
안산시,시화타원,,,경기도 안산시 단원구 성곡동 669-7,,일반공업,33066.1,,B0/3,25697.16,,2490,,118,110,8,분양,준공,,2010-11-09,2011-05-17,2011-05-31,,2023-07-24,,
안산시,안산디지털파크,,,경기도 안산시 단원구 신길동 1123,,일반공업,19751,,B1/6,74948.51,,3833,,350,350,1,분양,준공,,2004-09-23,2006-07-21,2004-07-09,,2023-07-24,,
안산시,유진타워 테크노밸리,,,경기도 안산시 단원구 원시동 729-1,,일반공업,6450.1,,B0/4,5712,,170,,23,23,2,분양,준공,,2011-03-04,2011-06-16,2011-05-16,,2023-07-24,,
안산시,유진타워 테크노밸리-2,,,경기도 안산시 단원구 목내동 471,,일반공업,4065.5,,B0/5,7059.79,,225,,10,10,1,분양,준공,,2011-12-05,2012-08-07,2012-01-16,,2023-07-24,,
안산시,유진타워 테크노밸리-3,,,경기도 안산시 단원구 성곡동 638-5,,일반공업,3194.9,,B0/4,4967.66,,715,,12,12,1,분양,준공,,2012-11-26,2013-12-06,2012-05-31,,2023-07-24,,
안산시,유진테크노밸리-5,,,경기도 안산시 단원구 원시동 818-5,,일반공업,3283,,B1/5,12930,,4764,,35,17,1,분양,준공,,2014-04-24,2015-05-19,2015-12-07,,2023-07-24,,
안산시,정우벤처타운1,,,경기도 안산시 단원구 신길동 1121-2,,일반공업,3140.6,,B1/6,11530.96,,366,,50,50,1,분양,준공,,2002-08-14,2003-05-21,2004-03-05,,2023-07-24,,
안산시,정우벤처타운2,,,경기도 안산시 단원구 신길동 1228-1,,일반공업,7677.2,,B1/8,23225.21,,9984,,128,128,1,분양,준공,,2002-04-26,2003-01-03,2002-04-02,,2023-07-24,,
안산시,제이에스테크노타워,,,경기도 안산시 단원구 원시동 730-1,,일반공업,13246,,B0/3,9611.6,,689,,52,47,3,분양,준공,,2011-05-19,2011-05-13,2011-02-15,,2023-07-24,,
안산시,타원 TAKRA,,,경기도 안산시 단원구 성곡동 645-5,,일반공업,22331.8,,B0/6,47297.23,,27756,,164,111,1,분양,준공,,2016-01-25,2017-06-07,2015-12-18,,2023-07-24,,
안산시,타원 TAKRA II,,,경기도 안산시 단원구 원시동 773-5,,일반공업,10966.1,,B1/9,67963.71,,34695,,163,130,1,분양,준공,,2014-12-20,2016-02-19,2014-09-04,,2023-07-24,,
안산시,타원 TAKRA Ⅲ,,,경기도 안산시 단원구 성곡동 645,,일반공업,27718.9,,B0/8,121435.11,,56952,,416,137,1,분양,준공,,2013-04-22,2014-02-25,2013-04-11,,2023-07-24,,
안산시,타원 TAKRA Ⅴ,,,경기도 안산시 단원구 원시동 784-2번지,,일반공업,13135.4,,B0/9,10503.21,,44634,,284,1,1,분양,준공,,2018-03-20,2019-11-11,2019-06-14,,2023-07-24,,
안산시,피앤피 지식산업센터,,,경기도 안산시 단원구 성곡동 672-37,,일반공업,1919.4,,B1/4,6685.61,,3509,,16,111,1,분양,준공,,2013-11-07,2014-05-30,2013-09-16,,2023-07-24,,
고양시,KT그룹 통합미디어센터,37.6514656268,126.7969080835,경기도 고양시 일산동구 백석동 1141,경기도 고양시 일산동구 경의로 235,준주거,32999,17499,B2/5,7393,,10106,,6,2,1,자가+임대,준공,,,,2022-03-22,,2023-02-24,,-
고양시,고양삼송 한강듀클래스,37.6676596824,126.9207554317,경기도 고양시 덕양구 오금동 686,경기도 고양시 덕양구 삼막3길 5,준주거,9920,65774,B2/9,30092,,35682,,280,,1,분양,준공,,,,2022-11-14,,2023-02-24,,-
고양시,고양아크비즈,37.6399738764,126.8754283615,경기도 고양시 덕양구 원흥동 704,경기도 고양시 덕양구 삼원로 63,준주거,5972,38667,B2/15,17847,,1509,,154,94,1,분양,준공,,,,2022-06-08,,2023-02-24,,-
고양시,광양프런티어밸리6차,37.6381778451,126.8749786933,"경기도 고양시 덕양구 원흥동 706,707",경기도 고양시 덕양구 삼원로 83,준주거,7217,46034,B1/15,21097,,24937,,224,202,1,분양,준공,,,,2021-08-23,,2023-02-24,,-
고양시,대방트리플라온비즈니스타워1,37.6791769414,126.7782751554,경기도 고양시 일산동구 중산동 1681번지,경기도 고양시 일산동구 하늘마을로 170,제3종일반주거,3925,14227,B1/14,12235,,1972,,71,47,1,분양,준공,,,,2012-06-15,,2023-02-24,,-
고양시,대방트리플라온비즈니스타워2,37.6789316592,126.7794342499,경기도 고양시 일산동구 중산동 1682번지,경기도 고양시 일산동구 하늘마을로 158,제3종일반주거,8720,35661,B2/14,30169,,5492,,147,92,2,분양,준공,,,,2012-06-15,,2023-02-24,,-
고양시,루트로닉센터,37.6133059972,126.8475859500,경기도 고양시 덕양구 행신동 1098번지,경기도 고양시 덕양구 소원로 219,제2종일반주거,5556,7956,B2/8,10677,,14341,,6,1,1,자가+임대,준공,,,,2012-12-26,,2023-02-24,,-
고양시,삼송 MBN 스튜디오,37.6491489052,126.8978646437,경기도 고양시 덕양구 동산동 372,경기도 고양시 덕양구 동송로 30,준주거,10682,71843,B2/21,26424,,45419,,50,11,,자가+임대,준공,,,,2021-07-15,,2023-02-24,,-
고양시,삼송테크노밸리,37.6490702916,126.9019008596,경기도 고양시 덕양구 동산동 376번지,경기도 고양시 덕양구 통일로 140,준주거,47636,188137,B3/4,175097,,13040,,795,777,2,분양,준공,,,,2015-01-08,,2023-02-24,,-
고양시,원흥 한일윈스타,37.6391342349,126.8751633656,경기도 고양시 덕양구 원흥동 705,경기도 고양시 덕양구 삼원로 73,준주거,6048,38905,B1/14,17805,,21099,,312,164,1,분양,준공,,,,2021-09-10,,2023-02-24,,-
고양시,원흥줌하이필드,37.6411381621,126.8757246505,경기도 고양시 덕양구 원흥동 702,경기도 고양시 덕양구 삼원로 51,준주거,3049,16279,B2/9,6927,,9314,,150,39,1,분양,준공,,,,2020-07-21,,2023-02-24,,-
고양시,유니테크빌벤처타운,37.6499050791,126.7936807093,경기도 고양시 일산동구 백석동 1141-2번지,경기도 고양시 일산동구 일산로 142,준주거,16739,133153,B2/10,80700,,14150,,300,300,1,분양,준공,,,,1998-07-15,,2023-02-24,,-
고양시,일산테크노타운,37.6501113608,126.7950164035,경기도 고양시 일산동구 백석동 1141-1번지,경기도 고양시 일산동구 일산로 138,준주거,19834,95499,B2/10,89116,,5815,,159,150,1,분양,준공,,,,,,2023-02-24,,-
고양시,지벤컴퍼니타워,37.6406601178,126.8756606431,경기도 고양시 덕양구 원흥동 703번지,경기도 고양시 덕양구 삼원로 55,준주거,2887,12582,B1/6,8308,,4274,,6,1,1,자가+임대,준공,,,,2019-06-21,,2023-02-24,,-
고양시,포스콤타워,37.6132850919,126.8486965156,경기도 고양시 덕양구 행신동 1099번지,경기도 고양시 덕양구 소원로 227,제2종일반주거,3061,11785,B2/8,9101,,2685,,6,4,1,자가+임대,준공,,,,2017-06-30,,2023-02-24,,-
과천시,과천상상자이타워,,,경기도 과천시 과천대로7길 65,,준주거,13886,9093.45,B5/15,,,,,,,,자가+분양+임대,사용승인,2020-09-23,2020-12-18,,2023-05-19,,2023-07-20,,
과천시,디테크타워,,,경기도 과천시 과천대로7길 33,,준주거,21506,12869.37,B3/15,,,,,,,,자가+분양+임대,사용승인,2020-03-31,2020-07-21,,2022-11-30,,2023-07-20,,
구리시,구리 스마트벤처타워,37.6389653587,127.1244651962,경기도 구리시 갈매동 510,경기도 구리시 갈매순환로204번길 65,도시+상업,2726,1588,B3/9,14547,0,2008,0,132,121,1,분양,준공,,,,2018-10-31,,2023-02-02,,
구리시,구리갈매 금강펜테리움 IX타워,,,"경기도 구리시 갈매동 522-12번지 등 3필지(522-12,13,14)",,도시+주거+준주거,31106,18811,B3/10,124080,,49341,,1391,,1,분양,준공,,,,2020-01-28,,2023-02-02,,
남양주시,SY비즈라클,,,경기도 남양주시 다산동 6243,,준주거,13689,79697.04,B3/6,58852.52,,20844.52,,,,1,,건설중,2022-03-14,2022-05-17,,,,2024-01-17,,
남양주시,도심 지식산업센터,37.5789633547,127.2224028330,"경기도 남양주시 도곡리 1025-1,5",경기도 남양주시 덕소로 234,근린상업,5085,19943.28,B1/7,19449.99,,493.29,,,,1,,사용승인,1990-08-20,1990-11-09,,1993-06-02,,2024-01-17,,
남양주시,동광 비즈타워,37.6515997203,127.1294009280,경기도 남양주시 별내동 974-1,경기도 남양주시 순화궁로 272,준주거,12867,89826.67,B2/13,80130.74,,9695.93,,,,1,,사용승인,2018-07-24,2018-10-02,,2020-09-25,,2024-01-17,,
남양주시,민족통일 MJ 센터,,,경기도 남양주시 별내동 970,,준주거,4037,33546.53,B5/9,23765.54,,9780.99,,,,1,,건설중,2021-02-26,2022-05-13,,,,2024-01-17,,
남양주시,별내 디퍼스트,,,경기도 남양주시 별내동 892-7,,준주거,4051,25727.81,B3/9,23501.47,,2226.34,,,,1,,건설중,2022-04-19,2022-11-24,,,,2024-01-17,,
남양주시,"별내 파라곤스퀘어(M동, S동)",37.6519200586,127.1280843097,경기도 남양주시 별내동 975-3,경기도 남양주시 순화궁로 249,준주거,17787,78824.46,B3/21,55208.82,,23615.64,,,,1,,사용승인,2018-06-14,2018-10-10,,2021-06-18,,2024-01-17,,
남양주시,별내 파라곤스퀘어(N동),37.6519200586,127.1280843097,경기도 남양주시 별내동 975-3,경기도 남양주시 순화궁로 249,준주거,5390,27198.75,B3/18,23707.23,,3434.94,,,,1,,사용승인,2018-06-14,2018-10-10,,2021-06-18,,2024-01-17,,
남양주시,블루오션 별내,37.6719788536,127.1152953410,경기도 남양주시 별내동 816,경기도 남양주시 별내3로 402,준주거,2529,14755.94,B3/8,11732.57,,3023.36,,,,1,,사용승인,2018-07-20,2018-09-17,,2020-05-14,,2024-01-17,,
남양주시,블루웨일 1차,37.6140788045,127.1537782406,경기도 남양주시 다산동 6144,경기도 남양주시 다산중앙로 19번길 17,준주거,7459,56543.21,B3/10,39683.07,,16860.14,,,,1,,사용승인,2017-11-15,2017-12-04,,2019-12-19,,2024-01-17,,
남양주시,블루웨일 2차,37.6131591791,127.1536918597,경기도 남양주시 다산동 6144-1,경기도 남양주시 다산중앙로 19번길 25-23,준주거,8057,61559.07,B3/10,43246.8,,18312.27,,,,1,,사용승인,2017-11-15,2018-07-01,,2020-09-11,,2024-01-17,,
남양주시,에이스 하이엔드,37.6524466804,127.1293060268,경기도 남양주시 별내동 974,경기도 남양주시 순화궁로 282,준주거,6434,36719.17,B1/14,29860.9,,6858.27,,,,1,,사용승인,2018-08-14,2019-05-13,,2021-02-03,,2024-01-17,,
남양주시,엠큐브스퀘어,,,경기도 남양주시 다산동 6242,,준주거,30396,199988.63,B3/8,161436.61,,38505.46,,,,1,,건설중,2020-09-22,2022-05-03,,,,2024-01-17,,
남양주시,한강프리미어갤러리,37.5977597315,127.1742899840,경기도 남양주시 다산동 6245,경기도 남양주시 다산지금로163번길 6,준주거,9516,64948.38,B3/7,56927.91,,8020.88,,,,1,,사용승인,2020-09-21,2020-12-30,,2023-03-13,,2024-01-17,,
남양주시,현대 그리너리캠퍼스,37.6634395301,127.1225278234,경기도 남양주시 별내동 865,경기도 남양주시 순화궁로 418,준주거,12937,79526.27,B2/15,71940.51,,7585.76,,,,1,,건설중,2021-03-15,2021-04-30,,,,2024-01-17,,
남양주시,현대테라타워DIMC,37.5955908777,127.1722604163,경기도 남양주시 다산동 6250,경기도 남양주시 다산지금로 202,준주거,30118,249723.61,B2/10,174794.94,,74890.03,,,,1,,사용승인,2019-06-26,2019-08-19,,2022-05-04,,2024-01-17,,
남양주시,현대프리미어캠퍼스,37.6126936640,127.1517111837,"경기도 남양주시 다산동 6143, 6143-1",경기도 남양주시 다산순환로 20,준주거,39963,331601.67,B4/10,223038,,98563.67,,,,1,,사용승인,2019-03-25,2019-09-15,,2022-06-03,,2024-01-17,,
오산시,대한은박지공업㈜,37.1832605218,127.0340366559,경기도 오산시 세교동 551-5번지,경기도 오산시 독산성로 342,자연녹지,9781,1926.27,B1/6,9914,,2698,,7,2,,임대,사용승인,,,,2001-12-19,,2023-02-06,,
오산시,더퍼스트타워 세교,37.1887340736,127.0414841728,경기도 오산시 세교동 595-1번지,경기도 오산시 독산성로 425,준주거,9442.7,6596.16,B2/10,49939.93,,8560.66,,472,432,,임대,사용승인,,,,2021-03-18,,2023-02-06,,
오산시,미정,,,경기도 오산시 세교동 592-7,,일반상업,10481.5,6903.7,B2/15,88173.74,,3103.47,,,,,임대,착공전,,,,,,2023-02-06,,
오산시,미정,,,경기도 오산시 세교동 592-9,,일반상업,13620.6,8674.63,B2/13,110491.49,,4836.98,,,,,임대,착공전,,,,,,2023-02-06,,
오산시,중앙하이츠 아셈IT타워,,,경기도 오산시 내삼미동 893,,준주거,10143.7,92476.37,B2/15,41695.5,,3175.52,,745,,,임대,착공전,,,,,,2023-02-06,,
오산시,현대테라타워 CMC,,,경기도 오산시 가수동 379외 4필지,,일반공업,30984,17449.86,B2/29,169480.37,,35888.17,,1608,,,임대,건설중,,,,,,2023-02-06,,
오산시,현대프리미어캠퍼스 세마역,,,경기도 오산시 세교동 586,,일반상업,26591.5,17751.7,B2/15,179538.084,,51022.24,,1826,,,임대,건설중,,,,,,2023-02-06,,
시흥시,(주)두용종합건설,37.3586667851,126.7104194921,경기도 시흥시 정왕동 2579-2번지 배곧신도시 도시지원시설용지7-1,"경기도 시흥시 서울대학로 59-69, 배곧신도시 도시지원시설용지7-1 (정왕동)",준주거지역,6326,16103.65,,16103.65,,,,305,,,분양,건설중,,,,,,2022-10-05,,
시흥시,(주)비츠로지식산업센터,37.3622939487,126.7861656112,경기도 시흥시 군자동 505번지,경기도 시흥시 군자양지편길 26 (군자동),제1종일반주거지역,539,897.4,,617.2,,280.2,,6,,,,,,,,,,2022-10-05,,
시흥시,(주)서보스타 지식산업센터,37.3712920595,126.8589826137,경기도 시흥시 조남동 687-3,경기도 시흥시 목감둘레로 168-28(조남동),준주거지역,1809,5658.36,,3512.47,,2145.89,,8,7,,,착공전,,,,,,2022-10-05,,
시흥시,(주)에이탑 지식산업센터,37.3789744495,126.7606049900,경기도 시흥시 월곶동 452-8번지,경기도 시흥시 달월길 19-3,제1종일반주거지역,406,493.98,,391.98,,102,,6,,,분양,사용승인,,,,,,2022-10-05,,
시흥시,(주)유넷트코리아,37.4247070548,126.8377206011,경기도 시흥시 무지내동 21-5번지 외 1필지,경기도 시흥시 금오로238번길 11 (무지내동) 외 1필지,제1종일반주거지역,1333,1659.24,,1659.24,,,,6,,,,착공전,,,,,,2022-10-05,,
시흥시,507-1지식산업센터,37.4149449531,126.7673820987,경기도 시흥시 방산동 507-1번지 외 1필지,경기도 시흥시 신현로 355-48 (방산동) 외 1필지,제1종일반주거지역,425,538.03,,484.09,,53.94,,6,,,,착공전,,,,,,2022-10-05,,
시흥시,507-2지식산업센터,37.4149884776,126.7671330650,경기도 시흥시 방산동 507-2번지,경기도 시흥시 신현로 355-50 (방산동),제1종일반주거지역,324,417.66,,372.75,,44.91,,6,,,,착공전,,,,,,2022-10-05,,
시흥시,672-5지식산업센터,37.4298800915,126.7985224234,경기도 시흥시 은행동 672-5,경기도 시흥시 은계로 55(은행동),준주거지역,2568.7,1960.26,,990.51,,969.75,,6,,,,,,,,,,2022-10-05,,
시흥시,A+에이플러스타워,37.4166026598,126.8407414642,경기도 시흥시 무지내동 276-7번지,"경기도 시흥시 금오로152번길 16 (무지내동, 중동3길6)",제1종일반주거지역,724,850.85,,850.84,,0.01,,6,,,,,,,,,,2022-10-05,,
시흥시,EG지식산업센터,37.3486663275,126.7070806477,경기도 시흥시 정왕동 1235-2 번지 (시화단지 1다101-2),"경기도 시흥시 공단1대로 10, (시화단지 1다101-2) (정왕동)",일반공업지역,8402.8,6873,,6717.3,,155.7,,20,25,,분양,사용승인,,,,,,2022-10-05,,
시흥시,M-플러스테크노,37.3601724694,126.7077839319,경기도 시흥시 정왕동 2578-0,경기도 시흥시 서울대학로 59-47 (정왕동),준주거지역,6040,43330.07,,36500.45,,6829.62,,140,,,분양,사용승인,,,,,,2022-10-05,,
시흥시,Y.H.테크노타운,37.4305137834,126.8005058026,경기도 시흥시 은행동 524-190번지 자족시설용지4-4,"경기도 시흥시 은계로 73, 자족시설용지4-4 (은행동)",준주거지역,1645,3551.12,,2816.42,,734.7,,12,,,분양,사용승인,,,,,,2022-10-05,,
시흥시,美堂(미당),37.4306323595,126.7977016007,경기도 시흥시 은행동 672-1번지 (은계자족3-9),"경기도 시흥시 은계남길 26, (은계자족3-9) (은행동)",준주거지역,840.6,2641.77,,1982.38,,659.39,,6,,,분양,,,,,,,2022-10-05,,
시흥시,건영테크노밸리,37.3597177946,126.7085339906,경기도 시흥시 정왕동 배곧신도시 도시지원시설용지 8-1,"경기도 시흥시 서울대학로 59-49, 배곧신도시 도시지원시설용지 8-1 (정왕동)",준주거지역,6020,31913.63,,20461.59,,11452.04,,359,,,분양,사용승인,,,,,,2022-10-05,,
시흥시,경기창호금속지식산업센터,37.3787506438,126.7594099173,"경기도 시흥시 월곶동 449-6번지 월곶동 449-6, -7","경기도 시흥시 달월길 30, 월곶동 449-6, -7 (월곶동)",제1종일반주거지역,1289,1545.13,,1232.83,,312.3,,6,,,,사용승인,,,,,,2022-10-05,,
시흥시,경성산업,37.4205818549,126.7723110522,경기도 시흥시 방산동 297번지,"경기도 시흥시 방골길 32-2 (방산동, 경성산업)",제1종일반주거지역,866,643.53,,643.52,,0.01,,6,,,,,,,,,,2022-10-05,,
시흥시,경일주방 지식산업센터,37.4029602719,126.7737808444,경기도 시흥시 포동 46 외 2필지,경기도 시흥시 새우개4길 4(포동) 외 2필지,제1종일반주거지역,783,1563.85,,1289.35,,274.5,,6,,,,,,,,,,2022-10-05,,
시흥시,고려정공 지식산업센터,37.4445147238,126.8117369082,경기도 시흥시 계수동 591-1번지 외 1필지,경기도 시흥시 계수로86번길 62 (계수동) (총 2 필지) 외 1필지,제1종일반주거지역,1918,1456.75,,1290.72,,166.03,,6,,,,,,,,,,2022-10-05,,
시흥시,고려티에스아이테크노빌,,,경기도 시흥시 은행동 0번지 자족 1-2,경기도 시흥시 은행동 0번지 자족 1-2,준주거지역,733,2193.19,,1192.48,,1000.71,,10,,,,,,,,,,2022-10-05,,
시흥시,골드테크노벨리,37.3573201800,126.7085365853,경기도 시흥시 정왕동 2587,경기도 시흥시 서울대학로 59-20 (정왕동),준주거지역,7291.5,49450.1,,35113.69,,14336.41,,402,,,,,,,,,,2022-10-05,,
시흥시,과림테크노,37.4509887697,126.8341650165,경기도 시흥시 과림동 102-5번지,"경기도 시흥시 금오로 557 (과림동, 과림로90)",제1종일반주거지역,1104,2013.2,,1527.03,,486.17,,6,,,,사용승인,,,,,,2022-10-05,,
시흥시,광석동7004,,,경기도 시흥시 광석동 7004 장현지구 자족시설용지 4블럭,,준주거지역,,,,,,,,6,,,,,,,,,,2022-10-05,,
시흥시,광성엔프라지식산업센터,37.4272878847,126.8098715325,경기도 시흥시 안현동 348-3번지,경기도 시흥시 수인로3087번길 57,제1종일반주거지역,1192,1324.75,,1219.94,,104.81,,6,,,임대,,,,,,,2022-10-05,,
시흥시,광양프런티어밸리8차,,,경기도 시흥시 광석동 249-2,,준주거지역,7284,60987.75,,26214.71,,34773.04,,6,,,,,,,,,,2022-10-05,,
시흥시,금이330-1,37.3984663555,126.8357597746,경기도 시흥시 금이동 330-1번지,경기도 시흥시 금화로 630-2,제1종일반주거지역,632,1170.79,,807.77,,363.02,,6,,,임대,사용승인,,,,,,2022-10-05,,
시흥시,길산에스에스티 지식산업센터,37.3344491118,126.7326514434,경기도 시흥시 정왕동 1277-14번지 3나 706-1호 3나 706-1호,경기도 시흥시 경기과기대로 219 (정왕동) 3나 706-1호,일반공업지역,11454.3,61157.68,,30543.81,,30613.87,,140,193,,분양+임대,사용승인,,,,,,2022-10-05,,
시흥시,김양규 지식산업센터,37.4513425504,126.8002327428,경기도 시흥시 대야동 667-1,경기도 시흥시 은계중앙로306번길 15(대야동),준주거지역,1689.2,2106.14,,1410.09,,696.05,,7,,,,,,,,,,2022-10-05,,
시흥시,남헌 테크노타운,37.3632425805,126.7865292837,경기도 시흥시 군자동 497번지,경기도 시흥시 황고개로 351-8 (군자동),제1종일반주거지역,831,1077.3,,1077.2,,0.1,,6,,,,,,,,,,2022-10-05,,
시흥시,누리지식산업센터,37.4164197318,126.7668253015,경기도 시흥시 방산동 475-1번지 외 1필지,경기도 시흥시 다지골길 20-12 (방산동) 외 1필지,제1종일반주거지역,416,494.82,,419.25,,75.57,,6,,,,,,,,,,2022-10-05,,
시흥시,대성엘컴,37.4183075450,126.7836453103,경기도 시흥시 미산동 561-2번지 외 1필지,경기도 시흥시 구수미1길 60-13 (미산동) 외 1필지,제1종일반주거지역,,1382,,1381.98,,0.02,,6,,,,착공전,,,,,,2022-10-05,,
시흥시,대성특수고무지식산업센터,37.4432332438,126.8287057349,"경기도 시흥시 과림동 377-22번지 101, 102호","경기도 시흥시 금오로465번길 23, 101, 102호 (과림동)",제1종일반주거지역,551,684.35,,561.32,,123.03,,6,,,분양,사용승인,,,,,,2022-10-05,,
시흥시,대야동664-12,,,경기도 시흥시 대야동 664-12,,준주거지역,,,,,,,,6,,,,,,,,,,2022-10-05,,
시흥시,대야동667,37.4517376524,126.7999803301,경기도 시흥시 대야동 667,경기도 시흥시 은계중앙로306번길 19(대야동),준주거지역,1787.4,8437.22,,2699.56,,5737.66,,6,,,,,,,,,,2022-10-05,,
시흥시,대한스프레이시스템아파트형공장,37.4017450096,126.8224939604,경기도 시흥시 도창동 223번지 외 1필지,경기도 시흥시 도창동 223번지 외 1필지,제1종일반주거지역,989,498.86,,498.85,,0.01,,6,,,,사용승인,,,,,,2022-10-05,,
시흥시,대화기공,37.4309477496,126.8007278217,경기도 시흥시 은행동 671-3번지 은계자족 4-6,"경기도 시흥시 은계남길 50, 은계자족 4-6 (은행동)",준주거지역,1601,5579.08,,3905.65,,1673.43,,20,,,분양,사용승인,,,,,,2022-10-05,,
시흥시,도우,,,경기도 시흥시 대야동 3056-2번지 은계자족시설용지6-2,경기도 시흥시 대야동 3056-2번지 은계자족시설용지6-2,준주거지역,1195.9,5658.36,,3512.47,,2145.89,,31,,,분양,,,,,,,2022-10-05,,
시흥시,동신,37.4243518667,126.8370682197,경기도 시흥시 무지내동 17-15번지,"경기도 시흥시 금오로238번길 4 (무지내동, 능안말3길2)",제1종일반주거지역,554,707.69,,707.68,,0.01,,6,,,분양,사용승인,,,,,,2022-10-05,,
시흥시,동양타워 지식산업센터,37.3338171266,126.7408757184,경기도 시흥시 정왕동 1290-14번지 3나 403,"경기도 시흥시 산기대학로 330, 3나 403 (정왕동)",일반공업지역,6278.1,35658.82,,17552.92,,18105.9,,138,,,,사용승인,,,,,,2022-10-05,,
시흥시,동우디지털파크,37.3296628281,126.7368313979,경기도 시흥시 정왕동 1288-2번지,"경기도 시흥시 정왕천로 197, 3다 402 (정왕동)",일반공업지역,21416,61369.96,,57531.71,,3838.25,,342,356,,분양,사용승인,,,,,,2022-10-05,,
시흥시,동진벤처타운,37.4022462665,126.8236030444,경기도 시흥시 도창동 181-3번지,"경기도 시흥시 수인로2793번길 65-2 (도창동, 강챙이1길67)",제1종일반주거지역,848,808.18,,808.17,,0.01,,6,,,,,,,,,,2022-10-05,,
시흥시,디에이치엠 지식산업센터,37.4306900973,126.7998372952,경기도 시흥시 은행동 671-1번지 (은계자족 4-8),경기도 시흥시 은계남길 44,준주거지역,1680,6327.29,,2732.7,,3594.59,,24,,,,착공전,,,,,,2022-10-05,,
시흥시,라온지식산업센터,37.4417663531,126.7741972712,경기도 시흥시 신천동 586-34번지,경기도 시흥시 수인로3465번길 16 (신천동),제1종일반주거지역,1853,3326.76,,2217.88,,1108.88,,6,,,,사용승인,,,,,,2022-10-05,,
시흥시,리더스스마트허브,37.4524849696,126.7968076562,경기도 시흥시 대야동 660 리더스스마트허브,"경기도 시흥시 은계중앙로306번길 55(대야동, 리더스스마트허브)",준주거지역,3690,17350.96,,6375.8,,10975.16,,119,,,분양,사용승인,,,,,,2022-10-05,,
시흥시,리드스마트스퀘어,37.4138910408,126.8203116530,경기도 시흥시 매화동 846 리드건설(주) 리드스마트스퀘어,"경기도 시흥시 매화산단3길 1, 리드스마트스퀘어(매화동, 리드건설(주))",일반공업지역,9479.6,59401.79,,55027.51,,4374.28,,272,138,,분양,,,,,,,2022-10-05,,
시흥시,매화센트럴 M플렉스,,,경기도 시흥시 도창동 시흥매화일반산업단지 A4-3,,일반공업지역,8111,55760.58,,53854.06,,1906.52,,206,,,분양,착공전,,,,,,2022-10-05,,
시흥시,메타1지식산업센터,,,경기도 시흥시 능곡동 7002-1 장현 자족2-1,,준주거지역,,,,,,,,6,,,,,,,,,,2022-10-05,,
시흥시,목감이스페이스,37.3713677885,126.8579881013,경기도 시흥시 조남동 684번지,경기도 시흥시 마산로 100,준주거지역,1405,9127.83,,7743.59,,1384.24,,6,,,,,,,,,,2022-10-05,,
시흥시,무궁 지식산업센터,37.4500929420,126.7962308446,경기도 시흥시 대야동 은계자족 1-12,"경기도 시흥시 은계로338번길 62, 은계자족 1-12 (대야동)",준주거지역,1536.1,3603.87,,3603.87,,,,8,,,분양,사용승인,,,,,,2022-10-05,,
시흥시,"방산동398,399",,,경기도 시흥시 방산동 398 외 1필지,경기도 시흥시 방산가마터길 24(방산동) 외 1필지,제1종일반주거지역,730,1407.86,,1245.69,,162.17,,6,,,,,,,,,,2022-10-05,,
시흥시,배곧 로얄팰리스 테크노1차 지식산업센터,37.3575735442,126.7059932726,경기도 시흥시 정왕동 1771-23번지,경기도 시흥시 서울대학로 59-21 (정왕동),준주거지역,12060,97825.33,,40673.8,,57151.53,,480,,,분양,사용승인,,,,,,2022-10-05,,
시흥시,배곧 스위트 시그니처타워,37.3590493681,126.7096702112,경기도 시흥시 배곧동 292-2 (주)에이치케이엘아이앤디,"경기도 시흥시 서울대학로 59-59 (배곧동, (주)에이치케이엘아이앤디)",준주거지역,6055.8,41373.54,,16124.64,,25248.9,,548,,,,,,,,,,2022-10-05,,
시흥시,배곧빌텍까뮤,37.3573201800,126.7085365853,경기도 시흥시 정왕동 2587-2,경기도 시흥시 서울대학로 59-20 (정왕동),준주거지역,5599.6,41357.4,,16465.56,,24891.84,,233,,,분양,,,,,,,2022-10-05,,
시흥시,배곧테크노밸리,37.3586667851,126.7104194921,경기도 시흥시 정왕동 2579-2 배곧테크노밸리 2579-2,경기도 시흥시 서울대학로 59-69 (정왕동) 배곧테크노밸리,준주거지역,6319.2,42523.07,,16069.59,,26453.48,,305,,,,착공전,,,,,,2022-10-05,,
시흥시,배곧프라임센터K,37.3576847251,126.7077874981,경기도 시흥시 배곧동 295-3,경기도 시흥시 서울대학로 59-50(배곧동),준주거지역,4978.1,39145.96,,13473.02,,25672.94,,210,,,분양,,,,,,,2022-10-05,,
시흥시,배곧프라임센터S 지식산업센터,37.3580677455,126.7071059604,경기도 시흥시 배곧동 295-1,경기도 시흥시 서울대학로 59-72(배곧동),준주거지역,4971.4,36737.59,,14517.23,,22220.36,,284,,,,,,,,,,2022-10-05,,
시흥시,배곧프라임센터Y,37.3589560902,126.7078531782,경기도 시흥시 배곧동 297-1,경기도 시흥시 서울대학로 59-86(배곧동),준주거지역,4973.5,39145.96,,13473.02,,25672.94,,210,,,분양,착공전,,,,,,2022-10-05,,
시흥시,보성스퀘어원 지식산업센터,37.3282922765,126.7325786155,경기도 시흥시 정왕동 1287-5번지 3다 506호,"경기도 시흥시 소망공원로 323, 3다 506호 (정왕동)",일반공업지역,8233.7,52268.84,,25163.74,,27105.1,,264,237,,분양+임대,사용승인,,,,,,2022-10-05,,
시흥시,부일정공,37.4536214793,126.7984590384,경기도 시흥시 대야동 263-17번지 은계지구자족시설용지1-11,"경기도 시흥시 은계중앙로306번길 44, 은계지구자족시설용지1-11 (대야동)",준주거지역,1504,2054.13,,1852.02,,202.11,,6,,,분양,,,,,,,2022-10-05,,
시흥시,비즈라이브센터,,,경기도 시흥시 배곧동 297-3,,준주거지역,4973.8,40997.35,,13743.72,,27253.63,,6,,,,,,,,,,2022-10-05,,
시흥시,산호테크노빌,37.4342824250,126.7915862872,경기도 시흥시 신천동 81-8번지 외 2필지,"경기도 시흥시 시흥대로 1115 (신천동, 산호테크노빌) 외 2필지",일반공업지역,1853,8481.83,,4682,,3799.83,,12,,,분양,사용승인,,,,,,2022-10-05,,
시흥시,삼양스마트테크노파크 지식산업센터,37.3493467680,126.7077396341,"경기도 시흥시 정왕동 1234-12번지 삼양스마트테크노파크 지식산업센터, 1나 207-1","경기도 시흥시 공단1대로 13, 삼양스마트테크노파크 지식산업센터, 1나 207-1 (정왕동)",일반공업지역,9410.1,56073.88,,25343.53,,30730.35,,217,217,,분양+임대,착공전,,,,,,2022-10-05,,
시흥시,상경타워,37.4521408288,126.7995695548,경기도 시흥시 대야동 660-5번지 (은계자족 5-6),"경기도 시흥시 은계중앙로306번길 25, (은계자족 5-6) (대야동)",준주거지역,2066.6,5267.94,,3593.1,,1674.84,,11,,,,,,,,,,2022-10-05,,
시흥시,새미길3(조남동)지식산업센터,37.3743595783,126.8595099358,경기도 시흥시 조남동 281-3번지 외 1필지,경기도 시흥시 새미길 3 (조남동) 외 1필지,제1종일반주거지역,1849,2456.78,,1623.93,,832.85,,6,,,임대,사용승인,,,,,,2022-10-05,,
시흥시,서광테크노타운,37.4358970029,126.7947925960,경기도 시흥시 은행동 247-1번지,"경기도 시흥시 은행로 42 (은행동, 서광테크노타운)",일반공업지역,588,2427.62,,1388.14,,1039.48,,10,,,분양,건설중,,,,,,2022-10-05,,
시흥시,선진다세다테크노,,,경기도 시흥시 은행동 000번지 은계지구 자족시설용지 1-10,경기도 시흥시 은행동 000번지 은계지구 자족시설용지 1-10,준주거지역,1379,2858.51,,2222.5,,636.01,,12,,,,사용승인,,,,,,2022-10-05,,
시흥시,성강해오름,37.4500929420,126.7962308446,경기도 시흥시 대야동 은계지구자족시설용지3-7블럭,"경기도 시흥시 은계로338번길 62, 은계지구자족시설용지3-7블럭 (대야동)",준주거지역,7515,33913.64,,17441.38,,16472.26,,190,,,,,,,,,,2022-10-05,,
시흥시,성강해오름 파크타워,37.4304208102,126.7985060748,경기도 시흥시 은행동 672-2,경기도 시흥시 은계남길 32 (은행동),준주거지역,7514.2,41705.01,,17846.27,,23858.74,,190,,,,사용승인,,,,,,2022-10-05,,
시흥시,세미정밀,37.4240662015,126.8391728831,경기도 시흥시 무지내동 68-4번지,경기도 시흥시 금오로230번길 24 (무지내동),제1종일반주거지역,573,518.4,,466.04,,52.36,,6,,,분양+임대,,,,,,,2022-10-05,,
시흥시,시화하이테크지식산업센터,37.3502578167,126.7091865594,경기도 시흥시 정왕동 1234-7 시화하이테크 아파트형공장,"경기도 시흥시 서해안로 242(정왕동, 시화하이테크 아파트형공장)",일반공업지역,9918.7,22085.67,,21338.1,,747.57,,68,,,임대,사용승인,,,,,,2022-10-05,,
시흥시,시흥 DSP 테크 지식산업센터,37.4535710414,126.7975550081,경기도 시흥시 대야동 664-1,경기도 시흥시 은계중앙로306번길 48(대야동),준주거지역,1315.2,1999.08,,1484.7,,514.38,,6,,,,,,,,,,2022-10-05,,
시흥시,시흥목감케이엠,37.3787977200,126.8668365804,"경기도 시흥시 조남동 719-1번지 목감동 자족시설용지4-2,4-3","경기도 시흥시 수풀안길 9-36, 목감동 자족시설용지4-2,4-3 (조남동)",준주거지역,5742.1,43950,,40608.66,,3341.34,,6,,,,,,,,,,2022-10-05,,
시흥시,시흥은계자족1-4,37.4532557188,126.7975805695,경기도 시흥시 대야동 664-10,경기도 시흥시 은계중앙로306번길 50(대야동),준주거지역,1368.2,5098.68,,1844.81,,3253.87,,6,,,,,,,,,,2022-10-05,,
시흥시,신성,37.4500929420,126.7962308446,경기도 시흥시 대야동 은계지구 자족시설용지3-3,"경기도 시흥시 은계로338번길 62, 은계지구 자족시설용지3-3 (대야동)",준주거지역,1855,3381.84,,2883.6,,498.24,,6,,,임대,사용승인,,,,,,2022-10-05,,
시흥시,신성테크노,37.4528897841,126.7997095508,경기도 시흥시 계수동 434-4번지 은계지구자족시설용지7-1,"경기도 시흥시 은계중앙로306번길 32, 은계지구자족시설용지7-1 (계수동)",준주거지역,1026,2115.48,,1133,,982.48,,6,,,,사용승인,,,,,,2022-10-05,,
시흥시,신진테크지식산업센터,37.4521379088,126.8005984328,경기도 시흥시 계수동 435-1번지,경기도 시흥시 은계중앙로306번길 22 (계수동),준주거지역,2190,4294.18,,3698.93,,595.25,,15,,,,사용승인,,,,,,2022-10-05,,
시흥시,신창테크노타운,37.4344764835,126.7938903498,경기도 시흥시 은행동 249번지,"경기도 시흥시 은행로 22 (은행동, 신창테크노타운)",제3종일반주거지역,1978,6408.55,,4787.05,,1621.5,,12,,,임대,사용승인,,,,,,2022-10-05,,
시흥시,신한이에프 지식산업센터,37.4524776612,126.8001317190,경기도 시흥시 대야동 665-4번지 (은계자족7-4),경기도 시흥시 은계중앙로306번길 24,준주거지역,1070.1,4082.75,,2230.78,,1851.97,,11,,,임대,사용승인,,,,,,2022-10-05,,
시흥시,신형강화도어 아파트형공장,37.4453961778,126.8318292155,경기도 시흥시 과림동 310-1번지,"경기도 시흥시 금오로480번길 11-2 (과림동, 중림1길51)",제1종일반주거지역,518,469.63,,469.62,,0.01,,6,,,,,,,,,,2022-10-05,,
시흥시,신흥파크빌,37.4339045807,126.8130887455,경기도 시흥시 안현동 101-15번지,"경기도 시흥시 수인로3108번길 31 (안현동, 양지편1길59)",제1종일반주거지역,836,987,,822.1,,164.9,,6,,,,사용승인,,,,,,2022-10-05,,
시흥시,앙카코리아아파트형공장,37.4507563648,126.8329121255,경기도 시흥시 과림동 99-19번지,"경기도 시흥시 금오로565번길 22 (과림동, (주)앙카코리아)",제1종일반주거지역,1267,1555.98,,1382.33,,173.65,,6,,,임대,사용승인,,,,,,2022-10-05,,
시흥시,앱클론 은계지구 지식산업센터,37.4299761491,126.7980016020,경기도 시흥시 은행동 672-6번지 (은계자족 3-4),경기도 시흥시 은계로 51,준주거지역,4276,9943.21,,8753.38,,1189.83,,15,,,,,,,,,,2022-10-05,,
시흥시,영림 지식산업센터,37.3791828117,126.8663702425,경기도 시흥시 조남동 719번지,경기도 시흥시 수풀안길 9-32 (조남동),준주거지역,2665.1,4318.57,,4318.57,,,,6,,,임대,사용승인,,,,,,2022-10-05,,
시흥시,예성테크노밸리,37.4144413640,126.8427153790,경기도 시흥시 무지내동 349-27번지,경기도 시흥시 금오로118번길 19-7 (무지내동),제1종일반주거지역,1460,1707.91,,1707.91,,,,6,,,분양,,,,,,,2022-10-05,,
시흥시,와이피워크 지식산업센터,37.4437880109,126.8279885751,경기도 시흥시 과림동 363번지 외 1필지,경기도 시흥시 금오로465번길 34 (과림동) 외 1필지,제1종일반주거지역,506,491.5,,449.33,,42.17,,6,,,,,,,,,,2022-10-05,,
시흥시,우림지식산업센터,37.4514970364,126.8331881971,경기도 시흥시 과림동 99-16번지 외 1필지,경기도 시흥시 금오로565번길 12-8 (과림동) 외 1필지,제1종일반주거지역,1115,1249.72,,1172.67,,77.05,,6,,,,사용승인,,,,,,2022-10-05,,
시흥시,우춘제지식산업센터,37.4517949892,126.8316818512,경기도 시흥시 과림동 191-3번지 외 1필지,경기도 시흥시 금오로575번길 22 (과림동) 외 1필지,제1종일반주거지역,796,954.38,,865.73,,88.65,,6,,,,,,,,,,2022-10-05,,
시흥시,원산업,37.4543636276,126.7944270330,경기도 시흥시 대야동 224번지,"경기도 시흥시 방아다리길 7-6, 원산업 (대야동)",제1종일반주거지역,395,760.36,,493.67,,266.69,,6,,,,사용승인,,,,,,2022-10-05,,
시흥시,원스페이스,37.4500929420,126.7962308446,경기도 시흥시 대야동 은계지구자족시설용지3-1,"경기도 시흥시 은계로338번길 62, 은계지구자족시설용지3-1 (대야동)",준주거지역,840.6,2570.06,,1945.22,,624.84,,6,,,,,,,,,,2022-10-05,,
시흥시,유영테크노빌,,,경기도 시흥시 계수동 0번지 은계지구 자족용지 6-4,경기도 시흥시 계수동 0번지 은계지구 자족용지 6-4,준주거지역,676,1216.53,,1016.9,,199.63,,6,,,,,,,,,,2022-10-05,,
시흥시,은계대림 지식산업센터,37.4531999454,126.7988134682,경기도 시흥시 대야동 664-7 은계자족 1-7,경기도 시흥시 은계중앙로306번길 40 (대야동) 은계자족 1-7,준주거지역,1544,5415.26,,3805.92,,1609.34,,6,,,,사용승인,,,,,,2022-10-05,,
시흥시,은계자족8-4,,,경기도 시흥시 대야동 667-3,,준주거지역,1684.4,6486.21,,2648.48,,3837.73,,6,,,,,,,,,,2022-10-05,,
시흥시,은행동 672-4,,,경기도 시흥시 은행동 672-4,,준주거지역,2704.8,8296.7,,5901.6,,2395.1,,10,,,,사용승인,,,,,,2022-10-05,,
시흥시,이노텍지식산업센터,37.4227185446,126.7886777158,경기도 시흥시 미산동 237-5번지 외3필지,경기도 시흥시 시흥대로 965,제1종일반주거지역,1444,1874.33,,1348.08,,526.25,,6,,,분양,착공전,,,,,,2022-10-05,,
시흥시,익스콘테크노빌,37.4342839850,126.7873475126,경기도 시흥시 신천동 862-6번지 외 2필지,"경기도 시흥시 포도원로116번길 12 (신천동, 익스콘테크노빌) 외 2필지",일반공업지역,2602.1,13523.89,,7305.99,,6217.9,,26,,,분양,사용승인,,,,,,2022-10-05,,
시흥시,장동하지식산업센터,37.4439030599,126.8276144867,경기도 시흥시 과림동 363-1번지 외 1필지,경기도 시흥시 금오로465번길 38 (과림동) 외 1필지,제1종일반주거지역,458,494.75,,423.62,,71.13,,6,,,,,,,,,,2022-10-05,,
시흥시,장현자족2-2,,,경기도 시흥시 능곡동 장현자족2-2,,준주거지역,3136,24804.93,,10195.11,,14609.83,,6,,,,,,,,,,2022-10-05,,
시흥시,장현자족5,,,경기도 시흥시 능곡동 182-3 장현자족5,,준주거지역,2062,16373.91,,6810.5,,9563.41,,158,,,,,,,,,,2022-10-05,,
시흥시,정왕대명벨리온 만성지식산업센터,37.3387013883,126.7226513064,"경기도 시흥시 정왕동 1263-1번지 정왕동 1263-1,2 외 1필지","경기도 시흥시 공단1대로 190, 정왕동 1263-1,2 (정왕동) 외 1필지",일반공업지역,16865.6,108923.16,,43053.16,,65870,,382,,,분양,,,,,,,2022-10-05,,
시흥시,제네스트,37.4305709851,126.7995106232,경기도 시흥시 은행동 439-4번지 자족시설용지4-1,"경기도 시흥시 은계남길 40, 자족시설용지4-1 (은행동)",준주거지역,1612,3377.28,,2796.32,,580.96,,7,,,분양,,,,,,,2022-10-05,,
시흥시,조남동719-3,37.3788210692,126.8661473844,경기도 시흥시 조남동 719-3,경기도 시흥시 수풀안길 19-40(조남동),준주거지역,2589.9,,,,,,,6,,,,,,,,,,2022-10-05,,
시흥시,중앙테크노타운,37.4344640254,126.7933139940,경기도 시흥시 신천동 86번지,"경기도 시흥시 은행로 21 (신천동, 중앙테크노타운)",일반공업지역,2113,9688.83,,5408.16,,4280.67,,35,,,분양,사용승인,,,,,,2022-10-05,,
시흥시,창현테크노타워,37.3716248781,126.8588555478,경기도 시흥시 조남동 687-2번지,경기도 시흥시 목감둘레로 168-24 (조남동),준주거지역,1855,5953.28,,4895.18,,1058.1,,8,,,분양,사용승인,,,,,,2022-10-05,,
시흥시,케이엠텍 지식산업센터,37.3787977200,126.8668365804,경기도 시흥시 조남동 719-1,경기도 시흥시 수풀안길 9-36(조남동),준주거지역,5742.1,43950,,20971.04,,22978.96,,198,,,,,,,,,,2022-10-05,,
시흥시,코포모(주),37.3316162113,126.7378275507,경기도 시흥시 정왕동 1289-5번지,"경기도 시흥시 공단1대로 341, 3나 505-2,3 (정왕동)",일반공업지역,14812.6,59467.32,,47577.32,,11890,,197,71,,분양,사용승인,,,,,,2022-10-05,,
시흥시,코포모테크노센타Ⅱ,37.3316162113,126.7378275507,경기도 시흥시 정왕동 1289-6 외 1필지,경기도 시흥시 공단1대로 341 (정왕동) 외 1필지,일반공업지역,10959.4,58881.98,,53737.12,,5144.86,,197,161,,분양,사용승인,,,,,,2022-10-05,,
시흥시,타원타크라6차,37.3433953762,126.7182225282,경기도 시흥시 정왕동 1255-10 타원타크라 6차 지식산업센터,"경기도 시흥시 옥구천동로 218 (정왕동, 타원타크라 6차 지식산업센터)",일반공업지역,19887.5,115789.14,,58883.48,,56905.66,,363,184,,분양,사용승인,,,,,,2022-10-05,,
시흥시,탑전자 지식산업센터,37.4384099619,126.8074341418,경기도 시흥시 은행동 0번지 은계지구 7-3,경기도 시흥시 은행동 0번지 은계지구 7-3,준주거지역,2195,4426.73,,3752.64,,674.09,,12,,,분양+임대,,,,,,,2022-10-05,,
시흥시,태진 지식산업센터,,,경기도 시흥시 대야동 664-6,경기도 시흥시 은계중앙로306번길 34 (대야동),준주거지역,1604,6046.76,,4388.35,,1658.41,,21,,,임대,사용승인,,,,,,2022-10-05,,
시흥시,트윈지식산업센터,37.3263219889,126.7331517240,경기도 시흥시 정왕동 1286-1번지 1286-1,"경기도 시흥시 정왕천로 155, 1286-1 (정왕동)",일반공업지역,165344,37761.25,,33985.71,,3775.54,,16,20,,분양+임대,사용승인,,,,,,2022-10-05,,
시흥시,포동332지식산업센터,37.4045795072,126.7674152441,경기도 시흥시 포동 332번지,경기도 시흥시 신현로 230-4 (포동),제1종일반주거지역,484,431.06,,406.96,,24.1,,6,,,임대,착공전,,,,,,2022-10-05,,
시흥시,풍진화학 지식산업센터,37.3362930206,126.7020857146,경기도 시흥시 정왕동 1696-15번지,"경기도 시흥시 협력로 62, [정왕동 1696-15, 시화단지 1마605-9] (정왕동)",일반공업지역,4163.7,9448.39,,8565.8,,882.59,,23,,,분양,착공전,,,,,,2022-10-05,,
시흥시,프라임캐슬지식산업센터,,,경기도 시흥시 신천동 864-8번지 외 2필지,경기도 시흥시 포도원로116번길 23 (신천동) 외 2필지,일반공업지역,7011.7,43172.26,,30383.42,,12788.84,,330,,,분양+임대,사용승인,,,,,,2022-10-05,,
시흥시,프라임큐브 지식산업센터,37.4153676397,126.8200270966,경기도 시흥시 매화동 845-2 (주)링크텍,"경기도 시흥시 매화산단로 105(매화동, (주)링크텍)",일반공업지역,8082.2,23034.75,,23034.75,,,,6,10,,분양,착공전,,,,,,2022-10-05,,
시흥시,한라벤처타운,37.4024610961,126.8233412456,경기도 시흥시 도창동 181-2번지,"경기도 시흥시 수인로2793번길 65 (도창동, 강챙이1길65)",제1종일반주거지역,542,670.21,,670.2,,0.01,,6,,,,,,,,,,2022-10-05,,
시흥시,한울정밀지식산업센터,37.4531431547,126.7998767815,경기도 시흥시 계수동 434-4번지 은계지구 자족시설용지7-2,"경기도 시흥시 은계중앙로306번길 32-1, 은계지구 자족시설용지7-2 (계수동)",준주거지역,1000,1998.82,,1410.86,,587.96,,6,,,,사용승인,,,,,,2022-10-05,,
시흥시,현대금형,37.4414382821,126.7750821854,경기도 시흥시 신천동 586-107번지,경기도 시흥시 수인로3465번길 19-1 (신천동),제1종일반주거지역,711,888.55,,888.55,,,,6,,,임대,사용승인,,,,,,2022-10-05,,
시흥시,화신하이테크,37.3556956188,126.7626061772,경기도 시흥시 죽율동 38-2번지 외 1필지,경기도 시흥시 봉화로 314 외 1필지,제1종일반주거지역,1844,2909.74,,2519.74,,390,,6,,,임대,,,,,,,2022-10-05,,
군포시,PK벤처타워,37.3564149326,126.9571553381,경기도 군포시 당정동  150-20,경기도 군포시 산본로54번안길 13,일반공업,1531,7093,B1/6,4232,,2861,,13,13,1,임대,사용승인,2006-05-04,2007-05-20,2008-02-01,2008-06-10,,2024-03-04,031-427-0091,
군포시,SK벤티움,37.3484253669,126.9525159902,경기도 군포시 당정동 522,경기도 군포시 고산로 166,일반공업,28592,122317,B1/5,94098,,28219,,368,334,4,분양,사용승인,2002-10-12,2002-12-15,2004-09-01,2004-09-06,,2024-03-04,031-436-0111,
군포시,군포IT밸리,37.3496648085,126.9535005762,경기도 군포시 당정동 1045,경기도 군포시 고산로148번길 17,일반공업,17658,137033,B3/34,63287,,73746,,624,619,2,분양,사용승인,2010-10-07,2010-12-10,2013-06-01,2013-06-28,5148288821,2024-03-04,031-8068-1111,
군포시,군포LS지식산업센터,37.3581075669,126.9528183042,경기도 군포시 당정동 181,경기도 군포시 공단로140번길 27,일반공업,12594,30772,B2/6,10453,,20318,,13,9,1,분양+임대,사용승인,2020-05-22,2020-09-07,2022-01-01,2022-01-28,,2024-03-04,02-2189-9198,
군포시,군포에이스더블유밸리,37.3268196807,126.9410355547,경기도 군포시 부곡동 1246,경기도 군포시 군포첨단산업2로7번길 8,준공업,6152,38240,B3/13,15363,,22878,,502,409,1,분양,사용승인,2019-04-12,2019-04-18,2021-07-01,2021-07-28,1238283009,2024-03-04,031-462-9117,
군포시,군포제일공단,37.3534584411,126.9532472487,경기도 군포시 당정동 323-1,경기도 군포시 당정로75번길 23,일반공업,4177,16820,B1/6,12012,,4809,,65,60,1,분양,사용승인,1995-12-30,1996-02-06,1997-04-01,1997-04-14,1238017596,2024-03-04,031-454-6617,
군포시,금봉테크노벨리1차,37.3582867269,126.9584517344,경기도 군포시 당정동 59-3,경기도 군포시 산본로48번길 32,일반공업,1536,6019,B1/9,4104,,2062,,18,13,1,분양,사용승인,1999-08-10,2000-03-17,2001-06-01,2001-06-25,,2024-03-04,031-453-4248,
군포시,금봉테크노벨리2차,37.3570523601,126.9605383061,경기도 군포시 당정동 93-5,경기도 군포시 고래들길 56,일반공업,2173,8990,B1/8,5746,,3243,,23,22,1,분양,사용승인,2001-01-18,2002-01-24,2003-05-01,2003-05-02,,2024-03-04,031-452-9886,
군포시,대영타워,37.3742109049,126.9441740554,경기도 군포시 산본동 1026-51,경기도 군포시 공단로 356-51,준공업,372,961,B0/5,661,,300,,7,4,1,분양+임대,사용승인,2010-04-02,2010-06-28,2011-03-01,2011-03-03,,2024-03-04,031-458-4686,
군포시,동영벤처스텔,37.3537562641,126.9494398985,경기도 군포시 당동 135-4,경기도 군포시 공단로 97,일반공업,724,2981,B1/7,1907,,1074,,17,6,1,분양,사용승인,1998-11-27,1999-08-30,2000-04-01,2000-04-11,,2024-03-04,031-427-1806,
군포시,삼성IT타워,37.3771152267,126.9426617014,경기도 군포시 산본동 18-11,경기도 군포시 엘에스로 196,일반공업,2275,10094,B0/10,5456,,4638,,24,24,1,임대,사용승인,2002-05-02,2002-05-14,2011-10-01,2011-09-01,,2024-03-04,031-477-6688,
군포시,삼풍데파트,37.3539996151,126.9533223633,경기도 군포시 당정동 324-18,경기도 군포시 당정로 57,일반공업,1001,4305,B2/5,3721,,584,,13,13,1,분양,사용승인,1991-12-12,1991-12-27,1992-07-01,1992-07-27,1238023098,2024-03-04,031-429-9477,
군포시,삼풍프라자,37.3515345609,126.9543451410,경기도 군포시 당정동 474,경기도 군포시 봉성로 82-7,일반공업,1984,9436,B2/7,6461,,2975,,34,24,1,분양,사용승인,1993-09-24,1993-11-17,1994-11-01,1994-11-23,1238002545,2024-03-04,031-452-9086,
군포시,성우빌딩,37.3754833704,126.9425834193,경기도 군포시 산본동 1026-22,경기도 군포시 공단로 356-16,준공업,1268,4977,B1/7,2137,,2840,,20,20,1,임대,사용승인,2021-06-08,2021-09-30,2023-02-01,2023-01-10,,2024-03-04,031-362-3100,
군포시,센트럴비즈파크,37.3572378003,126.9538070127,경기도 군포시 당정동 181-38,경기도 군포시 공단로140번길 38,일반공업,3605,27342,B1/14,22413,,4929,,305,200,1,분양,사용승인,2020-01-31,2020-09-03,2022-07-01,2022-07-21,,2024-03-04,031-429-8366,
군포시,스카이비즈,37.3600335772,126.9502409676,경기도 군포시 당정동  1054,경기도 군포시 농심로 2,일반공업,4371,36496,B2/14,16614,,19882,,204,173,1,분양+임대,사용승인,2018-04-23,2018-05-30,2020-04-01,2020-04-09,,2024-03-04,031-8033-0091,
군포시,신광프라자,37.3564987996,126.9538349514,경기도 군포시 당정동 181-40,경기도 군포시 공단로140번길 32-19,일반공업,3138,5756,B0/4,3825,,1931,,13,9,1,분양+임대,사용승인,2015-08-04,2015-08-21,2016-02-01,2016-02-26,,2024-03-04,031-451-2911,
군포시,신라테크노빌,37.3553044432,126.9509077900,경기도 군포시 당정동 1128,경기도 군포시 당정로 90,일반공업,6760,29940,B1/9,25157,,4784,,77,48,1,분양,사용승인,1995-04-10,1995-06-13,1998-09-01,1998-09-29,,2024-03-04,031-453-5942,
군포시,신일IT유토,37.3655975359,126.9566261722,경기도 군포시 당정동 2-3,경기도 군포시 엘에스로 13,일반공업,8795,47979,B3/15,24131,,23848,,185,171,1,분양,사용승인,2008-09-18,2010-03-12,2011-10-01,2011-09-15,1238270805,2024-03-04,031-689-3410,
군포시,아이벨리군포,37.3588660074,126.9492106084,경기도 군포시 당동 14-1,경기도 군포시 공단로 149,일반공업,6546,36867,B2/8,21555,,15312,,92,61,1,분양,사용승인,2000-08-22,2000-09-28,2003-08-01,2003-08-28,,2024-03-04,031-427-0844,
군포시,에스에이타워,37.3752438377,126.9433984018,경기도 군포시 산본동 1026-31,경기도 군포시 엘에스로 175,준공업,3220,14414,B2/7,9588,,4826,,46,40,1,분양,사용승인,2008-03-04,2008-04-21,2009-10-01,2009-06-04,,2024-03-04,031-427-6781,
군포시,에이스하이테크시티군포,37.3571916321,126.9555237132,경기도 군포시 당정동 181-43,경기도 군포시 공단로140번길 52,일반공업,5721,50549,B2/14,46228,,4322,,254,254,1,분양,사용승인,2017-05-25,2017-09-05,2019-09-01,2019-09-06,4118285049,2024-03-04,031-216-8621,
군포시,에이프로테크노피아,37.3706947587,126.9459279651,경기도 군포시 금정동 689-34,경기도 군포시 엘에스로115번길 60,일반공업,756,3178,B1/5,1944,,1234,,13,3,1,분양,사용승인,2002-08-14,2002-09-19,2003-05-01,2003-05-20,,2024-03-04,031-441-4001,
군포시,엠테크노센터,37.3569986562,126.9547233857,경기도 군포시 당정동 181-42,경기도 군포시 공단로140번길 46,일반공업,8717,68302,B2/13,33213,,35088,,273,205,1,분양+임대,사용승인,2015-11-10,2016-07-01,2018-02-01,2018-02-27,3098264358,2024-03-04,031-345-6040,
군포시,예성팩토링,37.3645479730,126.9479833161,경기도 군포시 금정동 188,경기도 군포시 공단로 223,준공업,997,4561,B1/7,3270,,1291,,16,16,1,분양,사용승인,2001-03-21,2001-04-18,2001-11-01,2001-11-26,1238004048,2024-03-04,031-459-6450,
군포시,우경타워,37.3767905304,126.9426189248,경기도 군포시 산본동 18-14,경기도 군포시 엘에스로182번길 3-15,일반공업,840,3092,B0/6,2030,,1062,,11,9,1,분양,사용승인,2002-09-10,2002-09-13,2003-07-01,2003-07-21,1233661987,2024-03-04,031-477-4104,
군포시,트리아츠A-1,37.3519725459,126.9495642609,경기도 군포시 당동 150-1 일원,경기도 군포시 공단로 356-17,일반공업,28751,18803,B3/28,109667,,2728,131875,1286,,,,건설중,2022-10-05,2022-10-11,,,,2024-03-04,,
군포시,트리아츠A-2,37.3519725459,126.9495642609,경기도 군포시 당동 150-1 일원,경기도 군포시 공단로 356-18,일반공업,6204,3452,B5/24,,,,,,,,,착공전,2022-10-18,,,,,2024-03-04,,
군포시,트리아츠B-1,37.3501704126,126.9493398097,경기도 군포시 당동 154-4 외 4필지,경기도 군포시 공단로 356-19,일반공업,6415,3611,B3/18,51785,,1102,,200,,,,착공전,2023-12-26,,,,,2024-03-04,,
군포시,한림벤처타운,37.3696571015,126.9456984279,경기도 군포시 금정동 689-6,경기도 군포시 공단로 284,일반공업,4542,22232,B1/7,20819,,1413,,95,76,1,분양,사용승인,2002-04-10,2002-04-18,2003-05-01,2003-03-17,1233745704,2024-03-04,031-454-9778,
군포시,한림휴먼타워,37.3756896917,126.9442873844,경기도 군포시 산본동 14-16,경기도 군포시 엘에스로 172,일반공업,8621,47084,B1/11,21906,,25177,,203,87,1,분양,사용승인,2002-11-15,2002-11-21,2004-06-01,2004-06-03,1238178493,2024-03-04,031-479-7500,
군포시,한솔테크노타운,37.3636528453,126.9590907439,경기도 군포시 당정동 16-1,경기도 군포시 경수대로 455,일반공업,7384,35427,B3/10,19378,,16049,,170,166,1,분양,사용승인,1996-11-18,1996-12-04,1998-08-01,1998-09-24,1238272628,2024-03-04,031-456-3319,
의왕시,대영골든밸리,37.3491568793,126.9726645451,경기도 의왕시 고천동 290-2번지,경기도 의왕시 경수대로 257,공업,4722,,B0/11,12938.79,,18633.88,,110,108,1,분양,준공,2005-01-01,,,2023-03-07,,2024-03-07,,
의왕시,대현 테크노월드,37.3552300033,126.9661519779,경기도 의왕시 오전동 174번지,경기도 의왕시 오전공업길 19,공업,5506,,B0/12,25790.04,,10816.24,,123,93,1,분양,준공,2003-01-01,,,2023-03-07,,2024-03-07,,
의왕시,더리브비즈원,37.3284730234,126.9534283546,경기도 의왕시 삼동 745번지,경기도 의왕시 오봉산단3로 25,공업,10475,,B1/15,49524,,11545,,363,330,1,분양,준공,2021-01-01,,,2023-03-07,,2024-03-07,,
의왕시,동영벤처스텔,37.3555596266,126.9652914786,경기도 의왕시 오전동 172번지,경기도 의왕시 오전공업길 22,공업,1066,,B0/7,2924.33,,1099.21,,15,15,1,분양,준공,2010-01-01,,,2023-03-07,,2024-03-07,,
의왕시,벽산선영테크노피아,37.3556206901,126.9668380017,경기도 의왕시 오전동 196-5번지,경기도 의왕시 오전공업길 13,공업,7746,,B0/14,31870.65,,3685.51,,90,100,1,분양,준공,2004-01-01,,,2023-03-07,,2024-03-07,,
의왕시,성우벤처빌,37.3531177347,126.9654781688,경기도 의왕시 고천동 332-33번지,경기도 의왕시 한밭들1길 11,공업,8202,,B0/5,19147.66,,6624.06,,40,40,1,분양,준공,2006-01-01,,,2023-03-07,,2024-03-07,,
의왕시,성진아파트형,37.3522763712,126.9628081319,경기도 의왕시 고천동 407-1번지,경기도 의왕시 고산로 74,공업,2146,,B0/11,7932.24,,1175,,48,44,1,분양,준공,1995-01-01,,,2023-03-07,,2024-03-07,,
의왕시,에이스청계타워,37.3976166331,126.9874192668,경기도 의왕시 포일동 657-2번지,경기도 의왕시 성고개로 53,준주거,8422,,B2/10,41718.24,,14369.48,,372,295,1,분양,준공,2018-01-01,,,2023-03-07,,2024-03-07,,
의왕시,에이스하이테크비젼21,37.3332722523,126.9581911126,경기도 의왕시 이동 732,경기도 의왕시 오봉산단1로 12,공업,7264,,B4/12,24836.3,,5300.35,,360,230,1,분양,준공,2021-01-01,,,2023-03-07,,2024-03-07,,
의왕시,에이엘티 지식산업센터,37.3563053509,126.9627681276,경기도 의왕시 오전동 150-24번지,경기도 의왕시 맑은내길 67,공업,8262,,B0/6,22870.04,,9275.27,,32,9,1,임대,준공,2013-01-01,,,2023-03-07,,2024-03-07,,
의왕시,원테크노,37.3919244795,126.9863848029,경기도 의왕시 포일동 511번지,경기도 의왕시 벌모루앞길 14,자연녹지,2700,,B0/5,2000,,1299,,6,3,1,임대,준공,2001-01-01,,,2023-03-07,,2024-03-07,,
의왕시,의왕월드비젼,37.3454081352,126.9749149171,경기도 의왕시 고천동 234-6번지,경기도 의왕시 경수대로 209,공업,2742,,B0/10,10978.18,,4681.04,,41,39,1,분양,준공,2004-01-01,,,2023-03-07,,2024-03-07,,
의왕시,인덕원IT밸리,37.4017965187,126.9910176434,경기도 의왕시 포일동 653번지,경기도 의왕시 이미로 40,준주거,29410,,B3/10,189444.94,,9671.99,,825,818,4,분양,준공,2014-01-01,,,2023-03-07,,2024-03-07,,
하남시,DY지식산업센터,37.5529813202,127.1845157602,경기도 하남시 풍산동 490번지,경기도 하남시 미사강변서로 30,준주거,3402,1346,B1/4,3386,,1346,,,,,임대,준공,2016-09-01,2016-11-15,,2017-10-31,,2023-07-24,,
하남시,두산 더프론트 미사,37.5481872117,127.1917585880,경기도 하남시 풍산동 599-2,경기도 하남시 미사강변중앙로 11,준주거,4612,2745,B4/10,26557,,11241,,,,,분양,준공,2019-05-10,2020-02-14,,2022-07-18,,2023-07-24,031-796-6682,
하남시,로얄팰리스 테크노1차,37.5482185233,127.1899471425,경기도 하남시 풍산동 601번지,경기도 하남시 하남대로 990,준주거,2870,1721,B5/10,16840,,7205,,,,,분양,준공,2017-06-28,2017-07-06,,2020-02-10,,2023-07-24,031-5175-2600,
하남시,미사강변 Sk V1 center,37.5758722080,127.1934564926,경기도 하남시 망월동 834-2번지,경기도 하남시 미사강변한강로 155,준주거,10279,6165,B4/10,61317,,25551,,,,,분양,준공,2017-08-09,2017-10-24,,2019-12-19,,2023-07-24,031-796-1607,
하남시,미사강변스카이폴리스,37.5765798448,127.1917548386,경기도 하남시 망월동 834번지,경기도 하남시 미사강변한강로 135,준주거,38713,23221,B4/10,221539,,94393,,,,,분양,준공,2019-07-02,2019-10-01,,2022-01-28,,2023-07-24,031-794-9246,
하남시,미사동일넥서스,37.5503668716,127.1911382750,경기도 하남시 풍산동 588-5,경기도 하남시 미사강변중앙로31번길 30,준주거,3551,2129,B4/10,20259,,8682,,,,,분양,준공,2019-07-22,2020-02-06,,2022-03-28,,2023-07-24,031-796-6950,
하남시,미사센텀비즈,37.5506917525,127.1844688056,경기도 하남시 풍산동 493번지,경기도 하남시 조정대로 45,준주거,16128,9672,B5/10,103457,,33571,,,,,분양,준공,2015-07-17,2015-09-02,,2018-01-23,,2023-07-24,031-5175-3111,
하남시,미사에코큐브,37.5525662779,127.1843590104,경기도 하남시 풍산동 490-1번지,경기도 하남시 미사강변서로 22,준주거,3402,2032,B4/10,19140,,8177,,,,,분양,준공,2017-11-15,2017-12-08,,2019-11-29,,2023-07-24,031-5175-5114,
하남시,미사테스타타워,37.5526520126,127.1827170463,경기도 하남시 풍산동 489번지,경기도 하남시 미사강변서로 25,준주거,19486,11682,B4/10,122754,,42400,,,,,분양,준공,2016-11-18,2016-12-13,,2019-05-23,,2023-07-24,031-5175-6000,
하남시,아이테코,37.5535037868,127.1946802895,경기도 하남시 덕풍동 762번지,경기도 하남시 조정대로 150,준주거,27017,16174,B4/10,170995,,26985,,,,,분양,준공,2008-10-13,2008-12-21,,2011-01-17,,2023-07-24,031-790-4113,
하남시,하남미사 희가로프리미어,37.5496837121,127.1918543139,경기도 하남시 풍산동 598번지,경기도 하남시 미사강변중앙로 31번길 15,준주거,2909,1743,B4/10,17009,,7177,,,,,분양,준공,2018-10-08,2018-12-03,,2021-03-05,,2023-07-24,031-796-6290,
하남시,하남미사유테크밸리,37.5493842269,127.1910744044,경기도 하남시 풍산동 595-1번지,경기도 하남시 미사강변중앙로7번안길 25,준주거,11027,6503,B4/10,62295,,26208,,,,,분양,준공,2018-11-01,2018-12-26,,2021-06-02,,2023-07-24,031-8027-6460,
하남시,하남테크로밸리U1 center,37.5458667457,127.1936926063,경기도 하남시 풍산동 618번지,경기도 하남시 하남대로 947,준주거,32578,19536,B2/15,219787,,50619,,,,,분양,준공,2016-11-24,2017-01-04,,2019-08-14,,2023-07-24,031-5180-1000,
하남시,하우스디 스마트밸리,37.5517914541,127.1844868120,경기도 하남시 풍산동 490-2번지,경기도 하남시 미사강변서로 16,준주거,7018,4209,B4/10,41427,,17488,,,,,분양,준공,2017-05-16,2017-08-18,,2019-07-04,,2023-07-24,031-5175-7114,
하남시,하우스디엘타워,37.5504185308,127.1834170989,경기도 하남시 풍산동 492번지,경기도 하남시 조정대로 35,준주거,7134,4279,B6/10,47645,,20062,,,,,분양,준공,2016-05-27,2016-08-24,,2018-08-03,,2023-07-24,031-5175-4114,
하남시,한강미사 아이에스비즈타워,37.5593850400,127.2034877802,경기도 하남시 덕풍동 831번지,경기도 하남시 미사대로 510,준주거,8290,4925,B4/10,46624,,19714,,,,,분양,준공,2017-11-23,2018-04-03,,2020-04-23,,2023-07-24,031-793-3670,
하남시,현대 테라타워 감일,37.5072919278,127.1650434687,경기도 하남시 감이동 474-1,경기도 하남시 신우실로 100,준주거,8160,4886,B4/8,51212,,6061,,,,,분양,준공,2020-05-01,2020-06-22,,2022-07-29,,2023-07-24,02-488-9236,
하남시,현대지식산업센터 한강미사,37.5567874503,127.2064191566,경기도 하남시 덕풍동 833-1번지,경기도 하남시 미사대로 550,준주거,16529,9903,B3/10,91874,,32023,,,,,분양,준공,2017-06-05,2017-07-17,,2019-09-20,,2023-07-24,031-8026-0900,
하남시,"현대지식산업센터 한강미사2차(A,B)",37.5577144841,127.2058720554,경기도 하남시 덕풍동 833번지,경기도 하남시 미사대로 540,준주거,11263,6755,B4/10,65288,,27726,,,,,분양,준공,2018-04-09,2018-05-23,,2021-01-06,,2023-07-24,031-5175-8000,
하남시,"현대지식산업센터 한강미사2차(C,D)",37.5588560558,127.2046107882,"경기도 하남시 덕풍동 831-1,2번지",경기도 하남시 미사대로 520,준주거,16889,10095,B4/10,100448,,37968,,,,,분양,준공,2018-04-09,2018-05-23,,2021-01-06,,2023-07-24,031-8018-4500,
하남시,현대클러스터 한강미사 3차,37.5749627047,127.1937886394,경기도 하남시 망월동 836,경기도 하남시 미사강변한강로 165,준주거,12064,7213,B3/10,64407,,27572,,,,,분양,준공,2019-07-04,2019-12-11,,2022-10-17,,2023-07-24,031-796-8900,
용인시,㈜용인테크노밸리,37.2913537558,127.1481097299,경기도 용인시 기흥구 청덕동 556,경기도 용인시 기흥구 구성로 357,준주거,24140,14244,B3/10,96794,,28069,,654,,1,분양+임대,준공,2015-01-06,,2017-01-26,2017-01-26,,2023-07-26,,
용인시,광교 우미 뉴브,37.3003038295,127.0713406671,경기도 용인시 수지구 상현동 1220,경기도 용인시 수지구 광교중앙로 338,준주거,21380,99999,B3/10,80992,,19007,,710,,1,분양+임대,준공,2016-10-12,,2019-11-26,2019-11-26,,2023-07-26,,
용인시,기흥 ICT 도시첨단산업단지 A동 지식산업센터,37.2800243826,127.1193522953,경기도 용인시 기흥구 구갈동 679,경기도 용인시 기흥구 기흥로 58-1,준주거,17212,5711,B6/29,85827,,12262,,422,,1,분양+임대,준공,2018-01-12,,2021-06-02,2021-06-02,,2023-07-26,,
용인시,기흥 ICT 도시첨단산업단지 B동 지식산업센터,,,경기도 용인시 기흥구 구갈동 681,경기도 용인시 수지구기흥로 58,준주거,12556,5076,B6/29,81779,,17972,,433,,1,분양+임대,준공,2018-01-12,,2021-06-02,2021-06-02,,2023-07-26,,
용인시,기흥 테라타워 현대엔지니어링,37.2313941963,127.0719114570,경기도 용인시 기흥구 농서동 452,경기도 용인시 기흥구 서천로201번길 11,준주거,27581,16531,B2/10,136513,,28828,,1069,,1,분양+임대,준공,2018-06-07,,2020-05-27,2020-05-27,,2023-07-26,,
용인시,넥스타테크놀로지(주),37.3283937522,127.1367848654,경기도 용인시 수지구 죽전동 1360-2,경기도 용인시 수지구 대지로 265,준주거,2835,1600,B2/5,7597,,682,,9,,1,분양+임대,준공,2018-10-30,,2020-07-17,2020-07-17,,2023-07-26,,
용인시,대우 프론티어밸리 1,37.2568152948,127.1678923681,경기도 용인시 기흥구 중동 1030,"경기도 용인시 기흥구 동백중앙로16번길 16-25 (중동, 대우프론티어밸리 Ⅰ)",준주거,10849,5977,B2/8,51674,,2392,,152,,1,분양+임대,준공,2008-10-23,,2011-04-04,2011-04-04,,2023-07-26,,
용인시,분당수지유타워,37.3382501682,127.1016959956,경기도 용인시 수지구 동천동 899,경기도 용인시 수지구 신수로 767,일반상업,16545,9411,B4/24,97473,,,,344,,1,분양+임대,준공,2013-01-11,,2016-05-27,2016-05-27,,2023-07-26,,
용인시,시그니처 광교지식산업센터,37.3017026592,127.0643932955,경기도 용인시 수지구 상현동 1184,경기도 용인시 수지구 포은대로 59번길 37,준주거,15237,8949,B4/10,48158,,12637,,468,,1,분양+임대,준공,2020-07-21,,2023-03-17,2023-03-17,,2023-07-26,,
용인시,에이스 동백타워,37.2563658009,127.1651202242,경기도 용인시 기흥구 중동 1033,경기도 용인시 기흥구 동백중앙로16번길 16-4,준주거,13806,7978,B2/20,72259,,4094,,428,,1,분양+임대,준공,2010-04-01,,2013-11-04,2013-11-04,,2023-07-26,,
용인시,이너매스허브센터,37.2295399130,127.0726321307,경기도 용인시 기흥구 농서동 457,경기도 용인시 기흥구 서천로201번길 31,준주거,2957,1336,B2/10,10124,,3717,,320,,1,분양+임대,준공,2018-10-11,,2020-04-01,2020-04-01,,2023-07-26,,
용인시,이호 지식산업센터,37.2569091821,127.1660199772,경기도 용인시 기흥구 중동 1028,경기도 용인시 기흥구 동백중앙로16번길 16-9,준주거,3403,1967,B2/7,15735,,2194,,38,,1,분양+임대,준공,2008-10-23,,2010-07-30,2010-07-30,,2023-07-26,,
용인시,케이비죽전알앤디센터,37.3287686159,127.1355752768,경기도 용인시 수지구 죽전동 1360,경기도 용인시 수지구 대지로 259-1,준주거,6264,3712,B2/4,18800,,,,11,,1,분양+임대,준공,2016-10-24,,2018-08-17,2018-08-17,,2023-07-26,,
용인시,프리미엄지식산업센터원희캐슬,37.2299696043,127.0718067815,경기도 용인시 기흥구 농서동 455,경기도 용인시 기흥구 서천로201번길 14,준주거,18929,11346,B1/10,54945,,18936,,692,,1,분양+임대,준공,2016-09-27,,2019-04-02,2019-04-02,,2023-07-26,,
용인시,흥덕 U-TOWER,37.2748617644,127.0800687639,경기도 용인시 기흥구 영덕동 1029,"경기도 용인시 기흥구 흥덕중앙로 120, G2블럭 흥덕지구 도시지원시설내 (영덕동)",준주거,25486,11507,B4/34,97814,,39108,,573,,1,분양+임대,준공,2009-01-05,,2011-05-03,2011-05-03,,2023-07-26,,
용인시,흥덕IT밸리,37.2707064991,127.0675947052,경기도 용인시 기흥구 영덕동 1005,경기도 용인시 기흥구 흥덕1로 13,준주거,35992,10809,B3/40,113136,,39496,,871,,1,분양+임대,준공,2010-03-01,,2013-09-27,2013-09-27,,2023-07-26,,
용인시,힉스유타워 지식산업센터,37.2688471371,127.0896890902,경기도 용인시 기흥구 영덕동 1315,경기도 용인시 기흥구 중부대로 184,준주거,13331,16015,B5/24,48513,,2893,,665,,1,분양+임대,준공,2016-10-26,,2019-11-01,2019-11-01,,2023-07-26,,
파주시,(주) 자바소프트,37.7075191558,126.6875717838,경기도 파주시 문발동 532-3,경기도 파주시 회동길 121 (문발동),준공업,1596.5,,,2545.9,,544,,10,,,,,2019-12-30,,,,,2023-07-20,,
파주시,(주)과학상자,37.7160891536,126.6912904546,경기도 파주시 서패동 471-4,경기도 파주시 회동길 325-6 (서패동),준공업,687.7,,,1254.61,,309,,8,,,,,2020-12-04,,,,,2023-07-20,,
파주시,(주)굿미디어,37.7232530353,126.6923813159,경기도 파주시 문발동632-1,경기도 파주시 회동길 527,준공업,676.9,,,675.76,,253,,10,,,,,2019-12-20,2019-12-28,2021-11-29,2021-11-29,,2023-07-20,,
파주시,(주)두그루,37.7084892216,126.6844754038,경기도 파주시 문발동 520-9,경기도 파주시 광인사길17,준공업,1345.4,,,1404.84,,329,,10,,,,,2021-04-02,,,,,2023-07-20,,
파주시,(주)무카스,37.7220260224,126.6935179805,경기도 파주시 문발동 635-1,경기도 파주시 회동길 495,준공업,1389,,,3216,,1159,,8,,,,,2022-11-23,,,,,2023-07-20,,
파주시,(주)아시아,37.7203358746,126.6941490233,경기도 파주시 문발동 638-5,경기도 파주시 회동길 445,준공업,1349.4,,,1538.39,,345,,11,,,,,2019-05-21,,,,,2023-07-20,,
파주시,(주)에스엠디자인,37.7288844618,126.6908108843,경기도 파주시 신촌동 742-8,경기도 파주시 문발로403-2,준공업,1460.6,,,2005.98,,468,,34,,,,,2019-02-25,,,,,2023-07-20,,
파주시,(주)에스엠디자인2,37.7030944475,126.6837631250,경기도 파주시 문발동 535-4,경기도 파주시 직지길84,준공업,1343.2,,,1525.87,,359,,6,,,,,2020-09-17,,,,,2023-07-20,,
파주시,(주)에이치컴퍼니,37.7230376697,126.6925198189,경기도 파주시 문발동 632-4,경기도 파주시 회동길 521-1 (문발동),준공업,1020.8,,,2304.84,,504,,9,,,,,2019-05-10,,,,,2023-07-20,,
파주시,(주)영화사집,37.7228471626,126.6936565881,경기도 파주시 문발동 627-3,경기도 파주시 회동길508,준공업,990.7,,,2003.17,,500,,9,,,,,2021-04-19,,,,,2023-07-20,,
파주시,(주)오브제스퀘어,,,경기도 파주시 서패동 469,,준공업,3259.4,,,8949.27,,3376,,21,,,,건설중,2023-01-05,2021-03-16,,,,2023-07-20,,
파주시,(주)우리세움,37.7106255640,126.6858134075,경기도 파주시 문발동 516-2,경기도 파주시 광인사길68,준공업,1521.1,,,2454.24,,479,,19,,,,,2019-02-25,,,,,2023-07-20,,
파주시,(주)임창정(예스아이엠),37.7105772641,126.6879581663,경기도 파주시 문발동 513-10,경기도 파주시 회동길192,준공업,1651.9,,,2210.23,,522,,14,,,,,2019-02-25,,,,,2023-07-20,,
파주시,(주)정윤인터내셔날,37.7286290756,126.6903710956,경기도 파주시 신촌동 742-5,경기도 파주시 재두루미길68,준공업,679.9,,,935.83,,210,,9,,,,,2021-10-08,,,,,2023-07-20,,
파주시,(주)첨단,37.7172142397,126.6923788009,경기도 파주시 서패동 470-1,경기도 파주시 심학산로 10,준공업,966.2,,,2064.54,,393,,9,,,,,2019-02-25,,,,,2023-07-20,,
파주시,(주)플린키,37.7092493878,126.6875302044,경기도 파주시 문발동 513-14,경기도 파주시 회동길 160,준공업,2479,,,2753,,385,,6,,,,,2023-02-02,,,,,2023-07-20,,
파주시,(주)하다니,37.7060911340,126.6856928496,경기도 파주시 문발동 529-3,경기도 파주시 회동길57-9,준공업,1019,,,1327,,213,,8,,,,,2021-07-14,,,,,2023-07-20,,
파주시,경인문화사,37.7203970224,126.6938646949,경기도 파주시 문발동 638-4,경기도 파주시 회동길 445-1,준공업,1679.3,,,3584.85,,822,,10,,,,,2019-05-09,,,,,2023-07-20,,
파주시,날마다,37.7229062901,126.6930772491,경기도 파주시 문발동 633-2,경기도 파주시 회동길 513 (문발동),준공업,700.8,,,1390.08,,315,,12,,,,,2020-03-25,,,,,2023-07-20,,
파주시,도서출판 혜지원,37.7212410869,126.6934016767,경기도 파주시 문발동 638,경기도 파주시 회동길445-4,준공업,992.3,,,2015.76,,459,,11,,,,,2019-07-03,,,,,2023-07-20,,
파주시,도서출판들녘,,,경기도 파주시 문발동 513-11,경기도 파주시 회동길 189,준공업,1953,,,1361.05,,279,,9,,,,,2019-05-21,,,,,2023-07-20,,
파주시,도서출판세화,37.7167888539,126.6908063130,경기도 파주시 서패동 469-2,경기도 파주시 회동길325-22,준공업,1001,,,2134.19,,218,,7,,,,,2020-03-27,,,,,2023-07-20,,
파주시,돌베개,37.7072560751,126.6873250740,경기도 파주시 문발동 532-4,경기도 파주시 회동길 77-20,준공업,912,,,837,,204,,6,,,,,2023-04-27,,,,,2023-07-20,,
파주시,뚜르드까망,37.7163216975,126.6923431061,경기도 파주시 서패동 472-3,경기도 파주시 회동길349,준공업,659.6,,,1106.94,,256,,10,,,,,2021-02-09,,,,,2023-07-20,,
파주시,명필름,37.7234941946,126.6933772429,경기도 파주시 문발동 627,경기도 파주시 회동길 530-20,준공업,3295,,,6438,,1572,,12,,,,,2023-03-13,,,,,2023-07-20,,
파주시,몽스패밀리,37.7213453449,126.6941494337,경기도 파주시 문발동 639-1,경기도 파주시 회동길471,준공업,688.4,,,1057.35,,169,,9,,,,,2021-08-11,,,,,2023-07-20,,
파주시,밝은미래,37.7211995946,126.6939240776,경기도 파주시 문발동 639-2,경기도 파주시 회동길455-2,준공업,684.4,,,1454.26,,249,,7,,,,,2020-03-27,,,,,2023-07-20,,
파주시,백산,37.7169597142,126.6933800218,경기도 파주시 서패동 473,경기도 파주시 회동길 370,준공업,1034.51,,,1361.7,,340,,9,,,,,2020-03-16,,,,,2023-07-20,,
파주시,시조사지식산업센터,37.7204843530,126.6934552691,경기도 파주시 문발동 638-3,경기도 파주시 회동길445-2,준공업,3243.6,,,3021.93,,748,,8,,,,,2021-07-15,,,,,2023-07-20,,
파주시,아카넷,37.7209888164,126.6934157590,경기도 파주시 문발동 638-1,경기도 파주시 회동길 445-3 (문발동),준공업,661.9,,,1330.84,,287,,8,,,,,2020-12-04,,,,,2023-07-20,,
파주시,아트팩토리NJF,37.7215211552,126.6948169907,경기도 파주시 문발동 626-11,경기도 파주시 회동길480,준공업,10654.4,,,22048.29,,5209,,321,,,,,2019-02-26,2019-02-26,2020-11-04,2020-11-04,,2023-07-20,,
파주시,엄마마음,37.7165488735,126.6926129450,경기도 파주시 서패동 472-2,경기도 파주시 회동길 357 (서패동),준공업,1385.9,,,2534.09,,447,,7,,,,,2019-02-25,,,,,2023-07-20,,
파주시,운정한강듀클래스,37.7326978222,126.7667024534,"경기도 파주시 와동동 1484, 1484-2",경기도 파주시 가람로116번길 107 (와동동),준주거,6257.6,3669.52,,6884,,1755,,304,,,,사용승인,2019-03-27,2019-04-10,,2020-10-08,,2023-07-20,031-947-5400,
파주시,자음과모음,37.7169528685,126.6910654895,경기도 파주시 서패동 469-1,경기도 파주시 회동길 325-20,준공업,1313.9,,,2029.91,,504,,13,,,,,2023-04-26,,,,,2023-07-20,,
파주시,제이티스스튜디오,37.7059895680,126.6853422835,경기도 파주시 문발동 529-2,경기도 파주시 회동길 37-14,준공업,926.4,,,1600.54,,239,,11,,,,,2019-02-25,,,,,2023-07-20,,
파주시,청아출판사,37.7164739762,126.6922053005,경기도 파주시 서패동 472-1,경기도 파주시 회동길363-15,준공업,690.6,,,1362.14,,327,,21,,,,,2019-05-21,,,,,2023-07-20,,
파주시,푸른사상사,37.7165968844,126.6917274316,경기도 파주시 서패동 470-6,경기도 파주시 회동길 337-16 (서패동),준주거,678.3,,,1347.95,,310,,8,,,,,2020-12-02,,,,,2023-07-20,,
파주시,흙마당,37.7170917172,126.6929133992,경기도 파주시 서패동 470-3,경기도 파주시 회동길373,준공업,963.9,,,2041.69,,492,,9,,,,,2019-02-25,,,,,2023-07-20,,
이천시,NLS이천타워,37.2326635483,127.4945549686,경기도 이천시 대월면 사동리 175-16,경기도 이천시 대월면 대월로 866,자연녹지,9592,5936.07,B0/4,5102.875,,,,8,8,1,,사용승인,2022-03-25,2022-06-13,,2023-02-28,,2023-07-28,,
이천시,STK아파트형공장,37.2503373135,127.4736366210,경기도 이천시 고담동 71-1번지,경기도 이천시 대산로288번길 107,자연녹지,4646,14980.78,B2/6,9285.12,,,,16,16,1,,사용승인,2002-02-21,1997-01-14,,2008-02-28,,2023-07-28,,
이천시,우리자연홀딩스㈜외 4개사,37.2708257109,127.4033042612,경기도 이천시 마장면 장암리 149-5번지,경기도 이천시 마장면 서이천로 556,농림,26600,9939.86,B1/4,4264.6,,,,6,2,1,,사용승인,2012-11-02,2013-05-10,,2014-09-25,,2023-07-28,,
안성시,벤처타운,37.0007674227,127.3237711713,경기도 안성시 금광면 금광리 102-1,경기도 안성시 금광면 금광초교길 46,도시지역,1394,404,B1/3,660,99,55,90,6,6,1,분양+임대,사용승인,,,,2001-12-21,1258300321,2023-03-08,,
김포시,The Big Barn,37.6157026214,126.6222420686,경기도 김포시 양촌읍 학운리 2980-1번지,경기도 김포시 황금로109번길 74,일반공업,3759,2652,B1/5,8447,,1350,,0,,1,분양,준공,2013-08-09,2013-08-29,2014-05-02,2014-05-02,,2023-07-28,031-8049-3920,
김포시,㈜디아이엠,37.6151916092,126.6226106542,경기도 김포시 양촌읍 학운리 2980-4번지,경기도 김포시 황금로109번길 80,일반공업,2414,1372,B1/4,2579,,600,,12,,1,분양,준공,2015-05-26,2015-10-23,2016-06-24,2016-06-24,,2023-07-28,031-998-0005,
김포시,경동미르웰시티,37.6412471573,126.6839189301,"경기도 김포시 장기동 2008-4,-5",경기도 김포시 태장로 741,준주거,11561,6926,B3/7,28977,,7356,,150,,1,분양,준공,2018-04-06,2018-06-15,2020-06-15,2020-06-15,,2023-07-28,031-996-1446,
김포시,금광테크노벨리,37.6398454906,126.6819507496,경기도 김포시 장기동 2008-1,경기도 김포시 태장로 765,준주거,5205,3121,B3/7,15449,,1673,,298,,1,분양,준공,2018-05-21,2018-06-01,2020-03-03,2019-11-30,,2023-07-28,031-986-7650,
김포시,금광하이테크시티,37.6381652697,126.6801103797,경기도 김포시 장기동 2083-4,경기도 김포시 태장로 789,준주거,8111,4837,B3/7,21076,,3944,,420,,1,분양,준공,2018-08-30,2020-03-13,2021-11-30,2021-11-30,,2023-07-28,031-5177-8991,
김포시,김포테라비즈,37.6407454279,126.6830516622,경기도 김포시 장기동 2008-3,경기도 김포시 태장로 751,준주거,5179,3101,B3/7,12551,,4726,,240,,1,분양,준공,2018-03-13,2018-03-23,2019-11-15,2019-11-15,,2023-07-28,031-986-9974,
김포시,김포한강듀클래스,37.6527910519,126.6380165644,경기도 김포시 구래동 6877-5,경기도 김포시 김포한강5로 321,준주거,13825,8265,B2/15,100522,,11518,,798,,1,분양,준공,2020-04-14,2020-08-24,2022-12-14,2022-12-14,,2023-07-28,,
김포시,김포한강르네상스첨단비즈나인,,,경기도 김포시 구래동 6877-10,,준주거,12286,,B3/15,48699,,2087,,350,,,분양,건설중,,,,,,2023-07-28,,
김포시,뉴테크산업지식센타,37.6151430922,126.6221466711,경기도 김포시 양촌읍 학운리 2980-3번지,경기도 김포시 황금1로80번길 55,일반공업,1674,1069,B1/4,2482,,730,,12,,1,분양,준공,2015-07-03,2015-08-17,2016-03-25,2016-03-25,,2023-07-28,031-989-4135,
김포시,대성지식산업센터,37.6150034371,126.6215477941,경기도 김포시 양촌읍 학운리 2980-2번지,경기도 김포시 황금1로80번길 39,일반공업,4089,3247,B1/4,8182,,1225,,12,,1,분양,준공,2014-12-26,2016-12-28,2018-01-24,2018-01-24,,2023-07-28,031-996-3181,
김포시,디원시티,37.6440365127,126.6181342096,"경기도 김포시 구래동 6871-7,-8,-9",경기도 김포시 김포한강10로133번길 127,준주거,8284,4955,B4/10,23362,,9777,,397,,1,분양,준공,2018-06-28,2018-07-18,2020-12-11,2020-12-11,,2023-07-28,0507-1410-2400,
김포시,디원시티 시그니처,37.6427244324,126.6186484508,경기도 김포시 구래동 6871-12~15,경기도 김포시 김포한강10로133번길 107,준주거,9488,5684,B3/10,29992,,5448,,610,,1,분양,준공,2020-02-27,2020-03-31,2022-04-08,2022-04-08,,2023-07-28,031-8035-2490,
김포시,라보진,37.5935150519,126.7962303180,경기도 김포시 고촌읍 전호리 722번지,경기도 김포시 아라육로 16,일반공업,10251,2651,B2/6,16722,,601,,10,,1,임대,준공,2014-07-09,2014-08-06,2015-10-19,2015-10-19,,2023-07-28,,
김포시,리브타워,,,경기도 김포시 구래동 6871-16,,준주거,2495,,B3/10,10548,,1886,,810,,,분양,건설중,,,,,,2023-07-28,,
김포시,마스터비즈파크,37.6378369233,126.6808507018,경기도 김포시 장기동 2083-6,경기도 김포시 태장로795번길 23,준주거,7045,4197,B3/7,20131,,2173,,374,,1,분양,준공,2017-11-01,2017-11-30,2019-07-19,2019-07-19,,2023-07-28,031-987-0630,
김포시,샹보르영무파라드김포한강,37.6452406961,126.6176552318,"경기도 김포시 구래동 6871-60,-61",경기도 김포시 김포한강10로133번길 165,준주거,4935,2960,B3/10,15536,,3562,,420,,1,분양,준공,2018-11-20,2019-11-27,2022-03-08,2022-03-08,,2023-07-28,,
김포시,센트레비즈,,,경기도 김포시 구래동 6871-23,,준주거,7459,,B3/10,21666,,3728,,1280,,,분양,건설중,,,,,,2023-07-28,,
김포시,이젠,37.6165068253,126.6213034910,경기도 김포시 양촌읍 학운리 2979번지,경기도 김포시 황금로 117,일반공업,51238,29817,B1/9,115258,,24130,,606,,3,분양,준공,2007-04-10,2007-03-15,2009-03-10,2009-03-10,,2023-07-28,031-999-7114,
김포시,일호,37.6153400693,126.6256115183,"경기도 김포시 양촌읍 학운리 3050,3050-1",경기도 김포시 황금1로80번길 130,일반공업,33046,23314,B1/10,34727,,11941,,117,,5,분양,준공,2010-05-18,2010-06-18,2013-05-13,2013-05-13,,2023-07-28,,
김포시,좋은밸리,37.6154527932,126.6213725483,경기도 김포시 양촌읍 학운리 2980번지,경기도 김포시 황금로127번길 69,일반공업,3759,2876,B1/6,6457,,563,,5,,1,임대,준공,2013-08-09,2013-08-29,2014-05-19,2014-05-19,,2023-07-28,031-985-8601,
김포시,한강신도시G타워,37.6402726936,126.6824674488,경기도 김포시 장기동 2008-2,경기도 김포시 태장로 755,준주거,5161,3080,B3/7,15191,,1900,,100,,1,분양,준공,2017-11-30,2018-02-22,2019-10-23,2019-10-23,,2023-07-28,031-5175-7777,
화성시,FIRST KOREA,37.2139327190,127.0919702799,경기도 화성시 영천동 204-3번지,경기도 화성시 동탄첨단산업1로 58 (영천동),준주거,4332,20892.29,B2/10,8741.14,,2164.9,9986.25,200,,,분양,사용승인,,,2019-04-24,2019-04-24,,2024-02-26,,
화성시,M-TOPIA,,,경기도 화성시 동탄2택지지구 지원4 (B/L),,준주거,15008,91050.24,B2/20,33676,,5256.83,52116.98,150,,,분양,착공전,2022-03-10,2022-08-02,,,6928101087,2024-02-26,02-523-5200,
화성시,SH TIME SQUARE 1,37.2099604531,127.0980999904,경기도 화성시 영천동 853-3,경기도 화성시 동탄대로 635 (영천동),준주거,6705,43646.33,B2/15,17520.64,,4372.66,21753.03,176,,,분양,사용승인,2016-06-09,2016-10-01,2018-09-06,2018-09-06,1208707104,2024-02-26,033-490-5868,
화성시,SH TIME SQUARE 2,37.2145210420,127.1006116951,경기도 화성시 영천동 846-2,경기도 화성시 동탄대로 683,준주거,6541,35576.23,B2/10,14323.68,,3492.13,17760.42,364,,,분양,사용승인,2017-09-15,2017-12-15,2019-07-05,2019-07-05,1208707104,2024-02-26,033-490-5868,
화성시,YK퍼스트타워,37.2111664290,127.0922669297,경기도 화성시 영천동 834-1,경기도 화성시 동탄기흥로 565 (영천동),준주거,2665,12840.49,B2/10,5136.18,,1283.76,6420.55,159,,,분양,사용승인,2015-11-13,2015-12-22,2017-05-02,2017-05-02,,2024-02-26,031-8017-7700,
화성시,㈜더퍼스트진양,,,경기도 화성시 동탄2택지지구 지원27-1(B/L),,준주거,4333,24873.47,B3/26,10528.05,,266.34,14079.08,120,,,분양,착공전,2022-05-27,,,,2158802044,2024-02-26,031-204-7750,
화성시,㈜유앤미개발 지식산업센터,,,경기도 화성시 동탄2택지지구 지원27-5(B/L),,준주거,10692,69800.83,B2/22,26100.48,,6331.83,37368.52,482,,,분양,착공전,2021-11-26,,,,,2024-02-26,02-3431-9000,
화성시,㈜투게더홀딩스지식산업센터,,,"경기도 화성시 동탄2택지지구 지원52-1,2(B/L)","경기도 화성시 동탄2택지지구 지원52-1,2(B/L)",준주거,11728,80284.32,B3/20,29916.95,,7685.7,42681.67,554,,,분양,착공전,2021-11-25,,,,1208707104,2024-02-26,02-2055-0000,
화성시,㈜홈에이스산업,37.1166967876,126.9216796119,경기도 화성시 향남읍 방축리 465,,준주거,5046.2,34931.52,B2/9,332562.92,,2368.6,,144,,,분양,착공전,2023-03-03,,,,,2024-02-26,,
화성시,골든아이타워,37.2109267347,127.0933388797,경기도 화성시 영천동 839-1,경기도 화성시 동탄기흥로 570-6 (영천동),준주거,5585,29977.78,B3/11,12270.31,,3009.75,14697.72,315,,,분양,사용승인,2016-02-05,2016-12-19,2018-12-21,2018-12-21,,2024-02-26,02-3404-3538,
화성시,더블유스페이스,37.2120392915,127.0970971803,경기도 화성시 영천동 847-8,경기도 화성시 동탄대로23길 101(영천동),준주거,3401.8,17812.25,B2/11,7244.7,,1769.63,8797.92,309,,,분양,사용승인,2019-02-20,2021-04-09,2022-10-19,2022-10-19,,2024-02-26,,
화성시,더챔버 라티파니,,,경기도 화성시 동탄2택지지구 지원40(B/L),,준주거,12697,82177.41,B2/20,28511.79,,7380.27,46285.35,350,,,분양,건설중,2021-11-30,2022-07-27,,,,2024-02-26,031-204-7700,
화성시,더퍼스트타워,37.2079130380,127.0977389498,경기도 화성시 영천동 652-5,경기도 화성시 동탄대로21길 10 (영천동),준주거,9659,57692.26,B3/20,23095.6,,5756.76,28839.9,250,,,분양,사용승인,2015-11-27,2016-01-28,2018-03-28,2018-03-28,,2024-02-26,02-3404-3589,
화성시,더퍼스트타워쓰리,37.2140598416,127.0948661328,경기도 화성시 영천동 836-1,경기도 화성시 동탄기흥로 602 (영천동),준주거,5406,32814.98,B3/17,13168.57,,3281.18,16365.23,180,,,분양,사용승인,2016-10-19,2017-02-07,2019-05-07,2019-05-07,,2024-02-26,,
화성시,더퍼스트타워투,37.2150969000,127.0949958361,경기도 화성시 영천동 835-1,경기도 화성시 동탄기흥로 614,준주거,9820,62954.87,B3/20,26614.74,,4903.22,31436.91,250,,,분양,사용승인,2016-10-10,2017-07-26,2019-12-03,2019-12-03,,2024-02-26,,
화성시,동익미라벨타워,37.2110197337,127.0941723696,경기도 화성시 영천동 839-2,경기도 화성시 동탄기흥로 560 (영천동),준주거,5996,37259.02,B3/15,16556.86,,2139.22,18562.94,278,,,분양,사용승인,2018-04-23,2018-08-07,2020-08-26,2020-08-26,3048601128,2024-02-26,02-783-6149,
